[
  {
    "id": "1",
    "marchio_id": "1",
    "indirizzo": "VIA UNGARESCA 30",
    "comune": "BRUGNERA ",
    "longitudine": "12.543273",
    "latitudine": "45.909298",
    "tipo": "STRADALE"
  },
  {
    "id": "3",
    "marchio_id": "2",
    "indirizzo": "VIA SANTAROSSA 2",
    "comune": "BRUGNERA ",
    "longitudine": "12.556428",
    "latitudine": "45.894211",
    "tipo": "STRADALE"
  },
  {
    "id": "5",
    "marchio_id": "3",
    "indirizzo": "VIA ODERZO 13",
    "comune": "PRATA DI PORDENONE ",
    "longitudine": "12.563397",
    "latitudine": "45.87087",
    "tipo": "STRADALE"
  },
  {
    "id": "6",
    "marchio_id": "4",
    "indirizzo": "VIA CROCE 6",
    "comune": "PRATA DI PORDENONE ",
    "longitudine": "12.577059",
    "latitudine": "45.898585",
    "tipo": "STRADALE"
  },
  {
    "id": "7",
    "marchio_id": "5",
    "indirizzo": "VIA PUJA 14",
    "comune": "PRATA DI PORDENONE ",
    "longitudine": "12.586816",
    "latitudine": "45.890465",
    "tipo": "STRADALE"
  },
  {
    "id": "9",
    "marchio_id": "6",
    "indirizzo": "STRADA DEL MOBILE B/3",
    "comune": "PASIANO DI PORDENONE ",
    "longitudine": "12.624396",
    "latitudine": "45.866941",
    "tipo": "STRADALE"
  },
  {
    "id": "10",
    "marchio_id": "1",
    "indirizzo": "VIA ROMA 125",
    "comune": "PASIANO DI PORDENONE ",
    "longitudine": "12.627649",
    "latitudine": "45.85013",
    "tipo": "STRADALE"
  },
  {
    "id": "12",
    "marchio_id": "2",
    "indirizzo": "VIA FRATTINA 46",
    "comune": "PRAVISDOMINI ",
    "longitudine": "12.678638",
    "latitudine": "45.808803",
    "tipo": "STRADALE"
  },
  {
    "id": "13",
    "marchio_id": "3",
    "indirizzo": "VIA FIUMICINO 19",
    "comune": "AZZANO DECIMO ",
    "longitudine": "12.695839",
    "latitudine": "45.894032",
    "tipo": "STRADALE"
  },
  {
    "id": "14",
    "marchio_id": "4",
    "indirizzo": "VIA ILARIA ALPI N.5",
    "comune": "AZZANO DECIMO ",
    "longitudine": "12.695991",
    "latitudine": "45.891036",
    "tipo": "STRADALE"
  },
  {
    "id": "15",
    "marchio_id": "5",
    "indirizzo": "VIA PEZZUT 15",
    "comune": "AZZANO DECIMO ",
    "longitudine": "12.709706",
    "latitudine": "45.884779",
    "tipo": "STRADALE"
  },
  {
    "id": "16",
    "marchio_id": "6",
    "indirizzo": "VIA I MAGGIO 59",
    "comune": "AZZANO DECIMO ",
    "longitudine": "12.720023",
    "latitudine": "45.880261",
    "tipo": "STRADALE"
  },
  {
    "id": "17",
    "marchio_id": "1",
    "indirizzo": "VIA MARCONI 41",
    "comune": "CHIONS ",
    "longitudine": "12.723161",
    "latitudine": "45.839135",
    "tipo": "STRADALE"
  },
  {
    "id": "18",
    "marchio_id": "2",
    "indirizzo": "VIA DANTE 48",
    "comune": "FIUME VENETO ",
    "longitudine": "12.732994",
    "latitudine": "45.899149",
    "tipo": "STRADALE"
  },
  {
    "id": "19",
    "marchio_id": "3",
    "indirizzo": "VIA VALLER 21",
    "comune": "AZZANO DECIMO ",
    "longitudine": "12.733611",
    "latitudine": "45.865806",
    "tipo": "STRADALE"
  },
  {
    "id": "20",
    "marchio_id": "4",
    "indirizzo": "VIA PRIMO MAGGIO",
    "comune": "CHIONS ",
    "longitudine": "12.76862",
    "latitudine": "45.86097",
    "tipo": "STRADALE"
  },
  {
    "id": "21",
    "marchio_id": "5",
    "indirizzo": "VIA TREVISO 8",
    "comune": "CHIONS ",
    "longitudine": "12.779272",
    "latitudine": "45.878182",
    "tipo": "STRADALE"
  },
  {
    "id": "23",
    "marchio_id": "6",
    "indirizzo": "SP 1 KM17+482 VIA TREVISO",
    "comune": "SAN VITO AL TAGLIAMENTO ",
    "longitudine": "12.822852",
    "latitudine": "45.897704",
    "tipo": "STRADALE"
  },
  {
    "id": "24",
    "marchio_id": "1",
    "indirizzo": "VIA VITTORIO VENETO 18",
    "comune": "CANEVA ",
    "longitudine": "12.43405",
    "latitudine": "45.9638",
    "tipo": "STRADALE"
  },
  {
    "id": "25",
    "marchio_id": "2",
    "indirizzo": "VIALE TRENTO 7",
    "comune": "SACILE ",
    "longitudine": "12.489278",
    "latitudine": "45.951885",
    "tipo": "STRADALE"
  },
  {
    "id": "26",
    "marchio_id": "3",
    "indirizzo": "VIALE DELLA REPUBBLICA 49",
    "comune": "SACILE ",
    "longitudine": "12.49449",
    "latitudine": "45.95562",
    "tipo": "STRADALE"
  },
  {
    "id": "27",
    "marchio_id": "4",
    "indirizzo": "BORGO SCHIAVOI 7",
    "comune": "SACILE ",
    "longitudine": "12.497327",
    "latitudine": "45.938682",
    "tipo": "STRADALE"
  },
  {
    "id": "29",
    "marchio_id": "5",
    "indirizzo": "VIA S.LIBERALE 11",
    "comune": "SACILE ",
    "longitudine": "12.509759",
    "latitudine": "45.959936",
    "tipo": "STRADALE"
  },
  {
    "id": "30",
    "marchio_id": "6",
    "indirizzo": "VIALE MATTEOTTI 10",
    "comune": "SACILE ",
    "longitudine": "12.512021",
    "latitudine": "45.960196",
    "tipo": "STRADALE"
  },
  {
    "id": "33",
    "marchio_id": "1",
    "indirizzo": "VIALE S.GIOVANNI 129",
    "comune": "SACILE ",
    "longitudine": "12.543453",
    "latitudine": "45.96831",
    "tipo": "STRADALE"
  },
  {
    "id": "34",
    "marchio_id": "2",
    "indirizzo": "VIA CASUT 30",
    "comune": "BRUGNERA ",
    "longitudine": "12.552408",
    "latitudine": "45.926429",
    "tipo": "STRADALE"
  },
  {
    "id": "35",
    "marchio_id": "3",
    "indirizzo": "VIALE VENEZIA 50",
    "comune": "FONTANAFREDDA ",
    "longitudine": "12.558065",
    "latitudine": "45.971877",
    "tipo": "STRADALE"
  },
  {
    "id": "36",
    "marchio_id": "4",
    "indirizzo": "A28 BRUGNERA SUD",
    "comune": "BRUGNERA ",
    "longitudine": "12.560563",
    "latitudine": "45.940805",
    "tipo": "STRADALE"
  },
  {
    "id": "37",
    "marchio_id": "5",
    "indirizzo": "A28 PORCIA NORD",
    "comune": "PORCIA ",
    "longitudine": "12.562094",
    "latitudine": "45.942323",
    "tipo": "STRADALE"
  },
  {
    "id": "38",
    "marchio_id": "6",
    "indirizzo": "VIALE EUROPA UNITA 2",
    "comune": "FONTANAFREDDA ",
    "longitudine": "12.575095",
    "latitudine": "45.977833",
    "tipo": "STRADALE"
  },
  {
    "id": "39",
    "marchio_id": "1",
    "indirizzo": "V. BRUNIS LOC. PALSE DI PORCIA",
    "comune": "PORCIA ",
    "longitudine": "12.595654",
    "latitudine": "45.942115",
    "tipo": "STRADALE"
  },
  {
    "id": "41",
    "marchio_id": "2",
    "indirizzo": "CORSO ZANUSSI 62",
    "comune": "PORCIA ",
    "longitudine": "12.615533",
    "latitudine": "45.96886",
    "tipo": "STRADALE"
  },
  {
    "id": "42",
    "marchio_id": "3",
    "indirizzo": "VIA SPINAZZEDO 10",
    "comune": "PORCIA ",
    "longitudine": "12.617809",
    "latitudine": "45.941888",
    "tipo": "STRADALE"
  },
  {
    "id": "43",
    "marchio_id": "4",
    "indirizzo": "CORSO ZANUSSI 29",
    "comune": "PORCIA ",
    "longitudine": "12.623922",
    "latitudine": "45.967669",
    "tipo": "STRADALE"
  },
  {
    "id": "45",
    "marchio_id": "5",
    "indirizzo": "VIALE VENEZIA 13",
    "comune": "PORDENONE ",
    "longitudine": "12.630696",
    "latitudine": "45.96931",
    "tipo": "STRADALE"
  },
  {
    "id": "46",
    "marchio_id": "6",
    "indirizzo": "VIA TREVISO N.27",
    "comune": "PORDENONE ",
    "longitudine": "12.637618",
    "latitudine": "45.922326",
    "tipo": "STRADALE"
  },
  {
    "id": "48",
    "marchio_id": "1",
    "indirizzo": "VIA TREVISO 62",
    "comune": "PORDENONE ",
    "longitudine": "12.644751",
    "latitudine": "45.92987",
    "tipo": "STRADALE"
  },
  {
    "id": "50",
    "marchio_id": "2",
    "indirizzo": "VIA NUOVA DI CORVA 76",
    "comune": "PORDENONE ",
    "longitudine": "12.65765",
    "latitudine": "45.931685",
    "tipo": "STRADALE"
  },
  {
    "id": "52",
    "marchio_id": "3",
    "indirizzo": "VIALE TREVISO 38",
    "comune": "PORDENONE ",
    "longitudine": "12.648701",
    "latitudine": "45.936656",
    "tipo": "STRADALE"
  },
  {
    "id": "53",
    "marchio_id": "4",
    "indirizzo": "VIALE TREVISO 11",
    "comune": "PORDENONE ",
    "longitudine": "12.650781",
    "latitudine": "45.939079",
    "tipo": "STRADALE"
  },
  {
    "id": "55",
    "marchio_id": "5",
    "indirizzo": "VIA MESTRE 9",
    "comune": "PORDENONE ",
    "longitudine": "12.665007",
    "latitudine": "45.950384",
    "tipo": "STRADALE"
  },
  {
    "id": "56",
    "marchio_id": "6",
    "indirizzo": "VIA DELLE GRAZIE 5",
    "comune": "PORDENONE ",
    "longitudine": "12.661633",
    "latitudine": "45.950785",
    "tipo": "STRADALE"
  },
  {
    "id": "61",
    "marchio_id": "1",
    "indirizzo": "VIALE GRIGOLETTI 40",
    "comune": "PORDENONE ",
    "longitudine": "12.651045",
    "latitudine": "45.963692",
    "tipo": "STRADALE"
  },
  {
    "id": "62",
    "marchio_id": "2",
    "indirizzo": "VIALE GRIGOLETTI 42",
    "comune": "PORDENONE ",
    "longitudine": "12.6504",
    "latitudine": "45.963837",
    "tipo": "STRADALE"
  },
  {
    "id": "63",
    "marchio_id": "3",
    "indirizzo": "VIALE GRIGOLETTI 46",
    "comune": "PORDENONE ",
    "longitudine": "12.649414",
    "latitudine": "45.964057",
    "tipo": "STRADALE"
  },
  {
    "id": "64",
    "marchio_id": "4",
    "indirizzo": "VIALE DELLA LIBERTA' N.60",
    "comune": "PORDENONE ",
    "longitudine": "12.672808",
    "latitudine": "45.964406",
    "tipo": "STRADALE"
  },
  {
    "id": "67",
    "marchio_id": "5",
    "indirizzo": "VIA PIAVE 8/A",
    "comune": "PORDENONE ",
    "longitudine": "12.672399",
    "latitudine": "45.969117",
    "tipo": "STRADALE"
  },
  {
    "id": "68",
    "marchio_id": "6",
    "indirizzo": "V.LE VENEZIA 46 SS PONTEBBANA",
    "comune": "PORDENONE ",
    "longitudine": "12.642555",
    "latitudine": "45.972057",
    "tipo": "STRADALE"
  },
  {
    "id": "69",
    "marchio_id": "1",
    "indirizzo": "VIA PIAVE 129",
    "comune": "PORDENONE ",
    "longitudine": "12.682195",
    "latitudine": "45.972353",
    "tipo": "STRADALE"
  },
  {
    "id": "70",
    "marchio_id": "2",
    "indirizzo": "VIALE VENEZIA 95",
    "comune": "PORDENONE ",
    "longitudine": "12.650693",
    "latitudine": "45.97483",
    "tipo": "STRADALE"
  },
  {
    "id": "71",
    "marchio_id": "3",
    "indirizzo": "VIA UDINE 126",
    "comune": "PORDENONE ",
    "longitudine": "12.683231",
    "latitudine": "45.947598",
    "tipo": "STRADALE"
  },
  {
    "id": "73",
    "marchio_id": "4",
    "indirizzo": "VIA SCLAVONS 136",
    "comune": "CORDENONS ",
    "longitudine": "12.68847",
    "latitudine": "45.975831",
    "tipo": "STRADALE"
  },
  {
    "id": "74",
    "marchio_id": "5",
    "indirizzo": "VIA SCLAVONS 100",
    "comune": "CORDENONS ",
    "longitudine": "12.693478",
    "latitudine": "45.978513",
    "tipo": "STRADALE"
  },
  {
    "id": "75",
    "marchio_id": "6",
    "indirizzo": "VIA MUSILE 18",
    "comune": "PORDENONE ",
    "longitudine": "12.695526",
    "latitudine": "45.950258",
    "tipo": "STRADALE"
  },
  {
    "id": "76",
    "marchio_id": "1",
    "indirizzo": "RACC. AUT. 16 KM 0+700",
    "comune": "FIUME VENETO ",
    "longitudine": "12.707607",
    "latitudine": "45.925971",
    "tipo": "STRADALE"
  },
  {
    "id": "79",
    "marchio_id": "2",
    "indirizzo": "VIA S.FRANCESCO 128",
    "comune": "FIUME VENETO ",
    "longitudine": "12.734696",
    "latitudine": "45.929772",
    "tipo": "STRADALE"
  },
  {
    "id": "80",
    "marchio_id": "3",
    "indirizzo": "VIA CUSANO 14",
    "comune": "ZOPPOLA ",
    "longitudine": "12.745218",
    "latitudine": "45.948469",
    "tipo": "STRADALE"
  },
  {
    "id": "81",
    "marchio_id": "4",
    "indirizzo": "CUSANO STRADA PONTEBBANA",
    "comune": "ZOPPOLA ",
    "longitudine": "12.752661",
    "latitudine": "45.949583",
    "tipo": "STRADALE"
  },
  {
    "id": "83",
    "marchio_id": "5",
    "indirizzo": "VIA PANCIERA 74",
    "comune": "ZOPPOLA ",
    "longitudine": "12.767986",
    "latitudine": "45.96241",
    "tipo": "STRADALE"
  },
  {
    "id": "84",
    "marchio_id": "6",
    "indirizzo": "VIA S. VITO 34/A RIVATTE",
    "comune": "FIUME VENETO ",
    "longitudine": "12.774208",
    "latitudine": "45.920274",
    "tipo": "STRADALE"
  },
  {
    "id": "85",
    "marchio_id": "1",
    "indirizzo": "CODROIPO 14",
    "comune": "ZOPPOLA ",
    "longitudine": "12.794703",
    "latitudine": "45.952986",
    "tipo": "STRADALE"
  },
  {
    "id": "86",
    "marchio_id": "2",
    "indirizzo": "VIA DOMANINS 28",
    "comune": "ZOPPOLA ",
    "longitudine": "12.80117",
    "latitudine": "45.979253",
    "tipo": "STRADALE"
  },
  {
    "id": "87",
    "marchio_id": "3",
    "indirizzo": "SS 13 KM 92+911,50",
    "comune": "ZOPPOLA ",
    "longitudine": "12.814367",
    "latitudine": "45.955778",
    "tipo": "STRADALE"
  },
  {
    "id": "88",
    "marchio_id": "4",
    "indirizzo": "VIA PONTEBBANA 2",
    "comune": "ZOPPOLA ",
    "longitudine": "12.821101",
    "latitudine": "45.956618",
    "tipo": "STRADALE"
  },
  {
    "id": "89",
    "marchio_id": "5",
    "indirizzo": "VIALE VENEZIA 39",
    "comune": "CASARSA DELLA DELIZIA ",
    "longitudine": "12.835596",
    "latitudine": "45.956666",
    "tipo": "STRADALE"
  },
  {
    "id": "90",
    "marchio_id": "6",
    "indirizzo": "VIA PLEBISCITO 35",
    "comune": "CASARSA DELLA DELIZIA ",
    "longitudine": "12.835711",
    "latitudine": "45.944296",
    "tipo": "STRADALE"
  },
  {
    "id": "96",
    "marchio_id": "1",
    "indirizzo": "VIA PEDEMONTANA 32",
    "comune": "POLCENIGO ",
    "longitudine": "12.509221",
    "latitudine": "46.040936",
    "tipo": "STRADALE"
  },
  {
    "id": "97",
    "marchio_id": "2",
    "indirizzo": "VIA PORDENONE 139/A",
    "comune": "POLCENIGO ",
    "longitudine": "12.514223",
    "latitudine": "46.016598",
    "tipo": "STRADALE"
  },
  {
    "id": "98",
    "marchio_id": "3",
    "indirizzo": "VIA VERDI 9",
    "comune": "BUDOIA ",
    "longitudine": "12.541973",
    "latitudine": "46.040508",
    "tipo": "STRADALE"
  },
  {
    "id": "99",
    "marchio_id": "4",
    "indirizzo": "VIA GIOL 22",
    "comune": "FONTANAFREDDA ",
    "longitudine": "12.54486",
    "latitudine": "45.992319",
    "tipo": "STRADALE"
  },
  {
    "id": "100",
    "marchio_id": "5",
    "indirizzo": "VIA SACILE 22",
    "comune": "AVIANO ",
    "longitudine": "12.586578",
    "latitudine": "46.068361",
    "tipo": "STRADALE"
  },
  {
    "id": "101",
    "marchio_id": "6",
    "indirizzo": "VIA ANTONINI 2",
    "comune": "FONTANAFREDDA ",
    "longitudine": "12.58825",
    "latitudine": "45.986612",
    "tipo": "STRADALE"
  },
  {
    "id": "102",
    "marchio_id": "1",
    "indirizzo": "LOC. MARSURE VIA TRIESTE 59",
    "comune": "AVIANO ",
    "longitudine": "12.595767",
    "latitudine": "46.093758",
    "tipo": "STRADALE"
  },
  {
    "id": "103",
    "marchio_id": "2",
    "indirizzo": "VIA PORDENONE 63",
    "comune": "AVIANO ",
    "longitudine": "12.597711",
    "latitudine": "46.06298",
    "tipo": "STRADALE"
  },
  {
    "id": "105",
    "marchio_id": "3",
    "indirizzo": "VIA PORDENONE 48/B",
    "comune": "AVIANO ",
    "longitudine": "12.602492",
    "latitudine": "46.051929",
    "tipo": "STRADALE"
  },
  {
    "id": "106",
    "marchio_id": "4",
    "indirizzo": "SP N. 7 \"DI AVIANO\" KM 6+847",
    "comune": "AVIANO ",
    "longitudine": "12.603264",
    "latitudine": "46.051596",
    "tipo": "STRADALE"
  },
  {
    "id": "108",
    "marchio_id": "5",
    "indirizzo": "XX SETTEMBRE 287A",
    "comune": "ROVEREDO IN PIANO ",
    "longitudine": "12.616723",
    "latitudine": "45.990988",
    "tipo": "STRADALE"
  },
  {
    "id": "110",
    "marchio_id": "6",
    "indirizzo": "VIA PIONIERI DELL'ARIA 103",
    "comune": "ROVEREDO IN PIANO ",
    "longitudine": "12.621239",
    "latitudine": "46.02062",
    "tipo": "STRADALE"
  },
  {
    "id": "111",
    "marchio_id": "1",
    "indirizzo": "VIA PIONIERI DELL'ARIA 40",
    "comune": "ROVEREDO IN PIANO ",
    "longitudine": "12.624661",
    "latitudine": "46.010128",
    "tipo": "STRADALE"
  },
  {
    "id": "112",
    "marchio_id": "2",
    "indirizzo": "VIA ROVEREDO SP 7 KM 0+230",
    "comune": "PORDENONE ",
    "longitudine": "12.631527",
    "latitudine": "45.996797",
    "tipo": "STRADALE"
  },
  {
    "id": "114",
    "marchio_id": "3",
    "indirizzo": "VIA MONTEREALE 157/A",
    "comune": "PORDENONE ",
    "longitudine": "12.643446",
    "latitudine": "45.984129",
    "tipo": "STRADALE"
  },
  {
    "id": "116",
    "marchio_id": "4",
    "indirizzo": "VIA MONTEREALE 88",
    "comune": "PORDENONE ",
    "longitudine": "12.645583",
    "latitudine": "45.98143",
    "tipo": "STRADALE"
  },
  {
    "id": "117",
    "marchio_id": "5",
    "indirizzo": "VIA PORDENONE N.2/A",
    "comune": "SAN QUIRINO ",
    "longitudine": "12.650531",
    "latitudine": "46.016965",
    "tipo": "STRADALE"
  },
  {
    "id": "119",
    "marchio_id": "6",
    "indirizzo": "VIA MANIAGO 28",
    "comune": "SAN QUIRINO ",
    "longitudine": "12.658091",
    "latitudine": "46.048925",
    "tipo": "STRADALE"
  },
  {
    "id": "120",
    "marchio_id": "1",
    "indirizzo": "VIA DELL'OMO 47/A",
    "comune": "MONTEREALE VALCELLINA ",
    "longitudine": "12.6614",
    "latitudine": "46.15167",
    "tipo": "STRADALE"
  },
  {
    "id": "122",
    "marchio_id": "2",
    "indirizzo": "LOC. S.LEONARDO VIA GIULIA 9",
    "comune": "MONTEREALE VALCELLINA ",
    "longitudine": "12.68076",
    "latitudine": "46.096253",
    "tipo": "STRADALE"
  },
  {
    "id": "123",
    "marchio_id": "3",
    "indirizzo": "VIA MAESTRA VECCHIA 170",
    "comune": "CORDENONS ",
    "longitudine": "12.687795",
    "latitudine": "45.986798",
    "tipo": "STRADALE"
  },
  {
    "id": "125",
    "marchio_id": "4",
    "indirizzo": "VIA MARCO POLO, 26",
    "comune": "MANIAGO ",
    "longitudine": "12.707932",
    "latitudine": "46.159684",
    "tipo": "STRADALE"
  },
  {
    "id": "126",
    "marchio_id": "5",
    "indirizzo": "VIA ARBA 43",
    "comune": "MANIAGO ",
    "longitudine": "12.719667",
    "latitudine": "46.158454",
    "tipo": "STRADALE"
  },
  {
    "id": "127",
    "marchio_id": "6",
    "indirizzo": "VIA VIVARINA 25/A LOC. DANDOLO",
    "comune": "MANIAGO ",
    "longitudine": "12.7502",
    "latitudine": "46.103518",
    "tipo": "STRADALE"
  },
  {
    "id": "128",
    "marchio_id": "1",
    "indirizzo": "SS CIMPELLO SEQUALS KM 11+800",
    "comune": "SAN GIORGIO DELLA RICHINVELDA ",
    "longitudine": "12.799387",
    "latitudine": "46.032174",
    "tipo": "STRADALE"
  },
  {
    "id": "129",
    "marchio_id": "2",
    "indirizzo": "FRAZ.RAUSCEDO VIA SILE 33",
    "comune": "SAN GIORGIO DELLA RICHINVELDA ",
    "longitudine": "12.834988",
    "latitudine": "46.039012",
    "tipo": "STRADALE"
  },
  {
    "id": "130",
    "marchio_id": "3",
    "indirizzo": "STRADA REGIONALE 251 KM95+990",
    "comune": "ERTO E CASSO ",
    "longitudine": "12.344681",
    "latitudine": "46.270023",
    "tipo": "STRADALE"
  },
  {
    "id": "133",
    "marchio_id": "4",
    "indirizzo": "V.LE REPUBBLICA 120",
    "comune": "MANIAGO ",
    "longitudine": "12.686027",
    "latitudine": "46.160619",
    "tipo": "STRADALE"
  },
  {
    "id": "134",
    "marchio_id": "5",
    "indirizzo": "MARCO POLO 25",
    "comune": "MANIAGO ",
    "longitudine": "12.70859",
    "latitudine": "46.159502",
    "tipo": "STRADALE"
  },
  {
    "id": "135",
    "marchio_id": "6",
    "indirizzo": "VIA V.EMANUELE 21",
    "comune": "MANIAGO ",
    "longitudine": "12.709085",
    "latitudine": "46.165951",
    "tipo": "STRADALE"
  },
  {
    "id": "136",
    "marchio_id": "1",
    "indirizzo": "VIA UNITA' D'ITALIA 3",
    "comune": "MANIAGO ",
    "longitudine": "12.712572",
    "latitudine": "46.171159",
    "tipo": "STRADALE"
  },
  {
    "id": "137",
    "marchio_id": "2",
    "indirizzo": "VIA PETRARCA 9",
    "comune": "CAVASSO NUOVO ",
    "longitudine": "12.766683",
    "latitudine": "46.185471",
    "tipo": "STRADALE"
  },
  {
    "id": "138",
    "marchio_id": "3",
    "indirizzo": "VIA PRINCIPALE 20",
    "comune": "MEDUNO ",
    "longitudine": "12.784162",
    "latitudine": "46.217146",
    "tipo": "STRADALE"
  },
  {
    "id": "139",
    "marchio_id": "4",
    "indirizzo": "SS 464 KM 7+592",
    "comune": "ARBA ",
    "longitudine": "12.794283",
    "latitudine": "46.163667",
    "tipo": "STRADALE"
  },
  {
    "id": "141",
    "marchio_id": "5",
    "indirizzo": "LOC. CELLA VIA TRIESTE 2",
    "comune": "FORNI DI SOPRA ",
    "longitudine": "12.58482",
    "latitudine": "46.41743",
    "tipo": "STRADALE"
  },
  {
    "id": "142",
    "marchio_id": "6",
    "indirizzo": "BORGATA LERPA 86",
    "comune": "SAPPADA ",
    "longitudine": "12.671116",
    "latitudine": "46.564702",
    "tipo": "STRADALE"
  },
  {
    "id": "143",
    "marchio_id": "1",
    "indirizzo": "VIA NAZIONALE 117",
    "comune": "AMPEZZO ",
    "longitudine": "12.79026",
    "latitudine": "46.4172",
    "tipo": "STRADALE"
  },
  {
    "id": "145",
    "marchio_id": "2",
    "indirizzo": "VIA ROMA 10",
    "comune": "SOCCHIEVE ",
    "longitudine": "12.823758",
    "latitudine": "46.403396",
    "tipo": "STRADALE"
  },
  {
    "id": "146",
    "marchio_id": "3",
    "indirizzo": "VIA REPUBBLICA 74",
    "comune": "RIGOLATO ",
    "longitudine": "12.854305",
    "latitudine": "46.549034",
    "tipo": "STRADALE"
  },
  {
    "id": "147",
    "marchio_id": "4",
    "indirizzo": "CORSO ITALIA 75",
    "comune": "RONCHIS ",
    "longitudine": "12.993696",
    "latitudine": "45.797856",
    "tipo": "STRADALE"
  },
  {
    "id": "148",
    "marchio_id": "5",
    "indirizzo": "VIA SOTTOPOVOLO",
    "comune": "LATISANA ",
    "longitudine": "12.997249",
    "latitudine": "45.772853",
    "tipo": "STRADALE"
  },
  {
    "id": "150",
    "marchio_id": "6",
    "indirizzo": "VIA ISONZO 52",
    "comune": "LATISANA ",
    "longitudine": "13.002616",
    "latitudine": "45.774007",
    "tipo": "STRADALE"
  },
  {
    "id": "151",
    "marchio_id": "1",
    "indirizzo": "VIA CROSERE 20",
    "comune": "LATISANA ",
    "longitudine": "13.013245",
    "latitudine": "45.788598",
    "tipo": "STRADALE"
  },
  {
    "id": "152",
    "marchio_id": "2",
    "indirizzo": "VIA LIGNANO 76",
    "comune": "LATISANA ",
    "longitudine": "13.023517",
    "latitudine": "45.771373",
    "tipo": "STRADALE"
  },
  {
    "id": "153",
    "marchio_id": "3",
    "indirizzo": "VIA LIGNANO NORD LOC. GORGO",
    "comune": "LATISANA ",
    "longitudine": "13.029959",
    "latitudine": "45.759658",
    "tipo": "STRADALE"
  },
  {
    "id": "154",
    "marchio_id": "4",
    "indirizzo": "SS 14 KM 83+705",
    "comune": "PRECENICCO ",
    "longitudine": "13.031515",
    "latitudine": "45.794069",
    "tipo": "STRADALE"
  },
  {
    "id": "158",
    "marchio_id": "5",
    "indirizzo": "VIA NAZIONALE 1/A",
    "comune": "PALAZZOLO DELLO STELLA ",
    "longitudine": "13.086043",
    "latitudine": "45.805305",
    "tipo": "STRADALE"
  },
  {
    "id": "160",
    "marchio_id": "6",
    "indirizzo": "V.LE EUROPA 150",
    "comune": "LIGNANO SABBIADORO ",
    "longitudine": "13.091054",
    "latitudine": "45.671687",
    "tipo": "STRADALE"
  },
  {
    "id": "162",
    "marchio_id": "1",
    "indirizzo": "VIA TARVISIO 59",
    "comune": "LIGNANO SABBIADORO ",
    "longitudine": "13.094406",
    "latitudine": "45.669298",
    "tipo": "STRADALE"
  },
  {
    "id": "163",
    "marchio_id": "2",
    "indirizzo": "S.S 14 KM 88+860",
    "comune": "PALAZZOLO DELLO STELLA ",
    "longitudine": "13.094453",
    "latitudine": "45.807781",
    "tipo": "STRADALE"
  },
  {
    "id": "164",
    "marchio_id": "3",
    "indirizzo": "V.LE EUROPA 112/A",
    "comune": "LIGNANO SABBIADORO ",
    "longitudine": "13.119589",
    "latitudine": "45.683583",
    "tipo": "STRADALE"
  },
  {
    "id": "165",
    "marchio_id": "4",
    "indirizzo": "V.LE EUROPA 16",
    "comune": "LIGNANO SABBIADORO ",
    "longitudine": "13.13293",
    "latitudine": "45.689416",
    "tipo": "STRADALE"
  },
  {
    "id": "167",
    "marchio_id": "5",
    "indirizzo": "VIA LATISANA 86",
    "comune": "LIGNANO SABBIADORO ",
    "longitudine": "13.13966",
    "latitudine": "45.690082",
    "tipo": "STRADALE"
  },
  {
    "id": "170",
    "marchio_id": "6",
    "indirizzo": "VIA UDINE 9",
    "comune": "MARANO LAGUNARE ",
    "longitudine": "13.167929",
    "latitudine": "45.76635",
    "tipo": "STRADALE"
  },
  {
    "id": "171",
    "marchio_id": "1",
    "indirizzo": "FZ. SCODOVACCA VIA GRADO 20",
    "comune": "CERVIGNANO DEL FRIULI ",
    "longitudine": "13.355992",
    "latitudine": "45.806378",
    "tipo": "STRADALE"
  },
  {
    "id": "172",
    "marchio_id": "2",
    "indirizzo": "GIULIA AUGUSTA 87/C",
    "comune": "AQUILEIA ",
    "longitudine": "13.358747",
    "latitudine": "45.785755",
    "tipo": "STRADALE"
  },
  {
    "id": "175",
    "marchio_id": "3",
    "indirizzo": "VIA DELLO SQUERO 22",
    "comune": "GRADO ",
    "longitudine": "13.386976",
    "latitudine": "45.681678",
    "tipo": "STRADALE"
  },
  {
    "id": "176",
    "marchio_id": "4",
    "indirizzo": "SS 14 TRIESTINA KM 115+050",
    "comune": "VILLA VICENTINA ",
    "longitudine": "13.390866",
    "latitudine": "45.80643",
    "tipo": "STRADALE"
  },
  {
    "id": "177",
    "marchio_id": "5",
    "indirizzo": "RIVA UGO FOSCOLO 1",
    "comune": "GRADO ",
    "longitudine": "13.396848",
    "latitudine": "45.67948",
    "tipo": "STRADALE"
  },
  {
    "id": "178",
    "marchio_id": "6",
    "indirizzo": "VIALE ARGINE DEI MORERI 52",
    "comune": "GRADO ",
    "longitudine": "13.404762",
    "latitudine": "45.681791",
    "tipo": "STRADALE"
  },
  {
    "id": "179",
    "marchio_id": "1",
    "indirizzo": "VIALE DEI MORERI",
    "comune": "GRADO ",
    "longitudine": "13.40539",
    "latitudine": "45.682099",
    "tipo": "STRADALE"
  },
  {
    "id": "180",
    "marchio_id": "2",
    "indirizzo": "VIA LIBERTA' 4/A",
    "comune": "FIUMICELLO ",
    "longitudine": "13.406021",
    "latitudine": "45.793306",
    "tipo": "STRADALE"
  },
  {
    "id": "181",
    "marchio_id": "3",
    "indirizzo": "LOC. PINETA VIA MONFALCONE",
    "comune": "GRADO ",
    "longitudine": "13.417079",
    "latitudine": "45.68166",
    "tipo": "STRADALE"
  },
  {
    "id": "182",
    "marchio_id": "4",
    "indirizzo": "FRAZ.PIERIS VIA BATTISTI 22",
    "comune": "SAN CANZIAN D'ISONZO ",
    "longitudine": "13.44281",
    "latitudine": "45.808446",
    "tipo": "STRADALE"
  },
  {
    "id": "184",
    "marchio_id": "5",
    "indirizzo": "P.ZZA CECCHINI 1",
    "comune": "CORDOVADO ",
    "longitudine": "12.881966",
    "latitudine": "45.850299",
    "tipo": "STRADALE"
  },
  {
    "id": "185",
    "marchio_id": "6",
    "indirizzo": "VIA ROMA 11/A",
    "comune": "MORSANO AL TAGLIAMENTO ",
    "longitudine": "12.928095",
    "latitudine": "45.859542",
    "tipo": "STRADALE"
  },
  {
    "id": "186",
    "marchio_id": "1",
    "indirizzo": "VIA PONTE DI MADRISIO 4",
    "comune": "VARMO ",
    "longitudine": "13.000158",
    "latitudine": "45.873995",
    "tipo": "STRADALE"
  },
  {
    "id": "188",
    "marchio_id": "2",
    "indirizzo": "VIA OBERDAN 82",
    "comune": "SAN VITO AL TAGLIAMENTO ",
    "longitudine": "12.865514",
    "latitudine": "45.906275",
    "tipo": "STRADALE"
  },
  {
    "id": "189",
    "marchio_id": "3",
    "indirizzo": "VIALE MADONNA DI ROSA 18",
    "comune": "SAN VITO AL TAGLIAMENTO ",
    "longitudine": "12.865982",
    "latitudine": "45.917953",
    "tipo": "STRADALE"
  },
  {
    "id": "191",
    "marchio_id": "4",
    "indirizzo": "VIA UDINE 26",
    "comune": "SAN VITO AL TAGLIAMENTO ",
    "longitudine": "12.87356",
    "latitudine": "45.92476",
    "tipo": "STRADALE"
  },
  {
    "id": "192",
    "marchio_id": "5",
    "indirizzo": "VIALE UDINE SS463 KM 45+719",
    "comune": "SAN VITO AL TAGLIAMENTO ",
    "longitudine": "12.871605",
    "latitudine": "45.931348",
    "tipo": "STRADALE"
  },
  {
    "id": "193",
    "marchio_id": "6",
    "indirizzo": "VIA LIGNANO 10",
    "comune": "CODROIPO ",
    "longitudine": "12.97666",
    "latitudine": "45.946087",
    "tipo": "STRADALE"
  },
  {
    "id": "194",
    "marchio_id": "1",
    "indirizzo": "S.S.463 KM 43 + 500 Z.I.",
    "comune": "SAN VITO AL TAGLIAMENTO ",
    "longitudine": "12.88236",
    "latitudine": "45.949793",
    "tipo": "STRADALE"
  },
  {
    "id": "195",
    "marchio_id": "2",
    "indirizzo": "VIA LIGNANO 4",
    "comune": "CODROIPO ",
    "longitudine": "12.973245",
    "latitudine": "45.950425",
    "tipo": "STRADALE"
  },
  {
    "id": "197",
    "marchio_id": "3",
    "indirizzo": "V.LE DUODO 52",
    "comune": "CODROIPO ",
    "longitudine": "12.989044",
    "latitudine": "45.961532",
    "tipo": "STRADALE"
  },
  {
    "id": "198",
    "marchio_id": "4",
    "indirizzo": "VIA PORDENONE 72",
    "comune": "CODROIPO ",
    "longitudine": "12.95502",
    "latitudine": "45.964853",
    "tipo": "STRADALE"
  },
  {
    "id": "199",
    "marchio_id": "5",
    "indirizzo": "VIALE VENEZIA 179/181",
    "comune": "CODROIPO ",
    "longitudine": "12.964405",
    "latitudine": "45.965323",
    "tipo": "STRADALE"
  },
  {
    "id": "200",
    "marchio_id": "6",
    "indirizzo": "VIA PORDENONE 87 SS 13",
    "comune": "CODROIPO ",
    "longitudine": "12.94489",
    "latitudine": "45.965953",
    "tipo": "STRADALE"
  },
  {
    "id": "201",
    "marchio_id": "1",
    "indirizzo": "VIALE VENEZIA 112",
    "comune": "CODROIPO ",
    "longitudine": "12.968429",
    "latitudine": "45.96695",
    "tipo": "STRADALE"
  },
  {
    "id": "203",
    "marchio_id": "2",
    "indirizzo": "VIA TRIESTE 16",
    "comune": "VALVASONE ",
    "longitudine": "12.866008",
    "latitudine": "45.990383",
    "tipo": "STRADALE"
  },
  {
    "id": "204",
    "marchio_id": "3",
    "indirizzo": "LOC.GRADISCA VIA OSOPPO 17",
    "comune": "SEDEGLIANO ",
    "longitudine": "12.968055",
    "latitudine": "45.997357",
    "tipo": "STRADALE"
  },
  {
    "id": "207",
    "marchio_id": "4",
    "indirizzo": "VIA CASTIONS 13",
    "comune": "MUZZANA DEL TURGNANO ",
    "longitudine": "13.134342",
    "latitudine": "45.821446",
    "tipo": "STRADALE"
  },
  {
    "id": "208",
    "marchio_id": "5",
    "indirizzo": "VIA III ARMATA, 47",
    "comune": "SAN GIORGIO DI NOGARO ",
    "longitudine": "13.194024",
    "latitudine": "45.83431",
    "tipo": "STRADALE"
  },
  {
    "id": "209",
    "marchio_id": "6",
    "indirizzo": "VIA ROMA 137",
    "comune": "POCENIA ",
    "longitudine": "13.09716",
    "latitudine": "45.841381",
    "tipo": "STRADALE"
  },
  {
    "id": "214",
    "marchio_id": "1",
    "indirizzo": "VIA CODROIPO - SP N. 56 3+284",
    "comune": "RIVIGNANO ",
    "longitudine": "13.035437",
    "latitudine": "45.889399",
    "tipo": "STRADALE"
  },
  {
    "id": "216",
    "marchio_id": "2",
    "indirizzo": "S.R. 252 KM.11+650",
    "comune": "MORTEGLIANO ",
    "longitudine": "13.146479",
    "latitudine": "45.932044",
    "tipo": "STRADALE"
  },
  {
    "id": "217",
    "marchio_id": "3",
    "indirizzo": "DIVISIONE JULIA 67",
    "comune": "MORTEGLIANO ",
    "longitudine": "13.175488",
    "latitudine": "45.935785",
    "tipo": "STRADALE"
  },
  {
    "id": "218",
    "marchio_id": "4",
    "indirizzo": "SS 252",
    "comune": "TALMASSONS ",
    "longitudine": "13.12037",
    "latitudine": "45.938671",
    "tipo": "STRADALE"
  },
  {
    "id": "219",
    "marchio_id": "5",
    "indirizzo": "FRAZ.VIRCO S.P.95 KM 11+740",
    "comune": "BERTIOLO ",
    "longitudine": "13.07852",
    "latitudine": "45.940277",
    "tipo": "STRADALE"
  },
  {
    "id": "220",
    "marchio_id": "6",
    "indirizzo": "VIA MARCONI 27",
    "comune": "MORTEGLIANO ",
    "longitudine": "13.16792",
    "latitudine": "45.941936",
    "tipo": "STRADALE"
  },
  {
    "id": "221",
    "marchio_id": "1",
    "indirizzo": "VIA VIRCO 25",
    "comune": "BERTIOLO ",
    "longitudine": "13.059159",
    "latitudine": "45.942358",
    "tipo": "STRADALE"
  },
  {
    "id": "222",
    "marchio_id": "2",
    "indirizzo": "SS. 252 KM 7+870",
    "comune": "TALMASSONS ",
    "longitudine": "13.100464",
    "latitudine": "45.943116",
    "tipo": "STRADALE"
  },
  {
    "id": "223",
    "marchio_id": "3",
    "indirizzo": "V. DIVISIONE JULIA 20",
    "comune": "MORTEGLIANO ",
    "longitudine": "13.17708",
    "latitudine": "45.944548",
    "tipo": "STRADALE"
  },
  {
    "id": "225",
    "marchio_id": "4",
    "indirizzo": "STRADALTA 2",
    "comune": "BERTIOLO ",
    "longitudine": "13.05116",
    "latitudine": "45.95026",
    "tipo": "STRADALE"
  },
  {
    "id": "227",
    "marchio_id": "5",
    "indirizzo": "FRAZ.GALLERIANO P.TE MADRISIO",
    "comune": "LESTIZZA ",
    "longitudine": "13.114101",
    "latitudine": "45.96976",
    "tipo": "STRADALE"
  },
  {
    "id": "228",
    "marchio_id": "6",
    "indirizzo": "VIA CAVALCAVIA 11",
    "comune": "CODROIPO ",
    "longitudine": "13.001125",
    "latitudine": "45.969933",
    "tipo": "STRADALE"
  },
  {
    "id": "229",
    "marchio_id": "1",
    "indirizzo": "S.S. 13 KM 113",
    "comune": "BASILIANO ",
    "longitudine": "13.062678",
    "latitudine": "45.989599",
    "tipo": "STRADALE"
  },
  {
    "id": "230",
    "marchio_id": "2",
    "indirizzo": "SS 13 PONTEBBANA KM 18+611",
    "comune": "BASILIANO ",
    "longitudine": "13.121525",
    "latitudine": "46.008065",
    "tipo": "STRADALE"
  },
  {
    "id": "231",
    "marchio_id": "3",
    "indirizzo": "VIA LEONARDO DA VINCI",
    "comune": "SAN GIORGIO DI NOGARO ",
    "longitudine": "13.215035",
    "latitudine": "45.822284",
    "tipo": "STRADALE"
  },
  {
    "id": "232",
    "marchio_id": "4",
    "indirizzo": "VIA TRIESTE 33/A",
    "comune": "SAN GIORGIO DI NOGARO ",
    "longitudine": "13.23859",
    "latitudine": "45.82746",
    "tipo": "STRADALE"
  },
  {
    "id": "233",
    "marchio_id": "5",
    "indirizzo": "STRADONE ZUINO NORD 244",
    "comune": "TORVISCOSA ",
    "longitudine": "13.28095",
    "latitudine": "45.828665",
    "tipo": "STRADALE"
  },
  {
    "id": "234",
    "marchio_id": "6",
    "indirizzo": "VIA VENEZIA 25",
    "comune": "CERVIGNANO DEL FRIULI ",
    "longitudine": "13.329937",
    "latitudine": "45.828782",
    "tipo": "STRADALE"
  },
  {
    "id": "235",
    "marchio_id": "1",
    "indirizzo": "VIA VENEZIA 6",
    "comune": "CERVIGNANO DEL FRIULI ",
    "longitudine": "13.331464",
    "latitudine": "45.829553",
    "tipo": "STRADALE"
  },
  {
    "id": "236",
    "marchio_id": "2",
    "indirizzo": "VIA LEONARDO DA VINCI 3",
    "comune": "SAN GIORGIO DI NOGARO ",
    "longitudine": "13.211475",
    "latitudine": "45.83791",
    "tipo": "STRADALE"
  },
  {
    "id": "237",
    "marchio_id": "3",
    "indirizzo": "VIA CISIS SS 352 KM 21+145",
    "comune": "CERVIGNANO DEL FRIULI ",
    "longitudine": "13.326292",
    "latitudine": "45.843751",
    "tipo": "STRADALE"
  },
  {
    "id": "238",
    "marchio_id": "4",
    "indirizzo": "VIA UDINE 65",
    "comune": "PORPETTO ",
    "longitudine": "13.212766",
    "latitudine": "45.847873",
    "tipo": "STRADALE"
  },
  {
    "id": "239",
    "marchio_id": "5",
    "indirizzo": "A4 GONARS SUD",
    "comune": "GONARS ",
    "longitudine": "13.259388",
    "latitudine": "45.88167",
    "tipo": "STRADALE"
  },
  {
    "id": "240",
    "marchio_id": "6",
    "indirizzo": "VIA JULIA AUGUSTA 7/B",
    "comune": "BAGNARIA ARSA ",
    "longitudine": "13.308595",
    "latitudine": "45.883562",
    "tipo": "STRADALE"
  },
  {
    "id": "242",
    "marchio_id": "1",
    "indirizzo": "VIA CORRIDONI 23/B",
    "comune": "GONARS ",
    "longitudine": "13.251438",
    "latitudine": "45.891651",
    "tipo": "STRADALE"
  },
  {
    "id": "244",
    "marchio_id": "2",
    "indirizzo": "VIA TAGLIO 8/A",
    "comune": "PALMANOVA ",
    "longitudine": "13.309279",
    "latitudine": "45.895162",
    "tipo": "STRADALE"
  },
  {
    "id": "245",
    "marchio_id": "3",
    "indirizzo": "S.S.252 N0 7",
    "comune": "GONARS ",
    "longitudine": "13.257726",
    "latitudine": "45.901948",
    "tipo": "STRADALE"
  },
  {
    "id": "246",
    "marchio_id": "4",
    "indirizzo": "SS 252 KM 19+978",
    "comune": "GONARS ",
    "longitudine": "13.246349",
    "latitudine": "45.904581",
    "tipo": "STRADALE"
  },
  {
    "id": "247",
    "marchio_id": "5",
    "indirizzo": "VIA ZOMPICCO 93",
    "comune": "SANTA MARIA LA LONGA ",
    "longitudine": "13.278829",
    "latitudine": "45.931143",
    "tipo": "STRADALE"
  },
  {
    "id": "248",
    "marchio_id": "6",
    "indirizzo": "VIA AQUILEIA 12",
    "comune": "PAVIA DI UDINE ",
    "longitudine": "13.323419",
    "latitudine": "45.974675",
    "tipo": "STRADALE"
  },
  {
    "id": "250",
    "marchio_id": "1",
    "indirizzo": "VIA GRADO 174",
    "comune": "PAVIA DI UDINE ",
    "longitudine": "13.274049",
    "latitudine": "46.000148",
    "tipo": "STRADALE"
  },
  {
    "id": "251",
    "marchio_id": "2",
    "indirizzo": "SS 353 KM 6+629",
    "comune": "POZZUOLO DEL FRIULI ",
    "longitudine": "13.206743",
    "latitudine": "46.001562",
    "tipo": "STRADALE"
  },
  {
    "id": "252",
    "marchio_id": "3",
    "indirizzo": "SS 56 KM 11+752",
    "comune": "BUTTRIO ",
    "longitudine": "13.33066",
    "latitudine": "46.00873",
    "tipo": "STRADALE"
  },
  {
    "id": "253",
    "marchio_id": "4",
    "indirizzo": "CARGNACCO VIA BUTTRIO 59",
    "comune": "POZZUOLO DEL FRIULI ",
    "longitudine": "13.25341",
    "latitudine": "46.009187",
    "tipo": "STRADALE"
  },
  {
    "id": "254",
    "marchio_id": "5",
    "indirizzo": "A23 ZUGLIANO EST",
    "comune": "POZZUOLO DEL FRIULI ",
    "longitudine": "13.219032",
    "latitudine": "46.015735",
    "tipo": "STRADALE"
  },
  {
    "id": "255",
    "marchio_id": "6",
    "indirizzo": "VIA DELLA FERROVIA VECCHIA",
    "comune": "CERVIGNANO DEL FRIULI ",
    "longitudine": "13.35665",
    "latitudine": "45.808563",
    "tipo": "STRADALE"
  },
  {
    "id": "257",
    "marchio_id": "1",
    "indirizzo": "VIA AQUILEIA 98/3",
    "comune": "CERVIGNANO DEL FRIULI ",
    "longitudine": "13.340064",
    "latitudine": "45.814298",
    "tipo": "STRADALE"
  },
  {
    "id": "258",
    "marchio_id": "2",
    "indirizzo": "VIA XXV APRILE 31",
    "comune": "TURRIACO ",
    "longitudine": "13.437742",
    "latitudine": "45.817759",
    "tipo": "STRADALE"
  },
  {
    "id": "260",
    "marchio_id": "3",
    "indirizzo": "VIA JEVADA 20 SAN NICCOLO'",
    "comune": "RUDA ",
    "longitudine": "13.401247",
    "latitudine": "45.827723",
    "tipo": "STRADALE"
  },
  {
    "id": "262",
    "marchio_id": "4",
    "indirizzo": "VIA MAMELI 11/C",
    "comune": "AIELLO DEL FRIULI ",
    "longitudine": "13.34859",
    "latitudine": "45.877283",
    "tipo": "STRADALE"
  },
  {
    "id": "263",
    "marchio_id": "5",
    "indirizzo": "VIA GOFFREDO MAMELI - SP126 - DIREZIONE SUD",
    "comune": "AIELLO DEL FRIULI ",
    "longitudine": "13.353811",
    "latitudine": "45.888112",
    "tipo": "STRADALE"
  },
  {
    "id": "265",
    "marchio_id": "6",
    "indirizzo": "VIA GORIZIA 12",
    "comune": "SAN VITO AL TORRE ",
    "longitudine": "13.375268",
    "latitudine": "45.892236",
    "tipo": "STRADALE"
  },
  {
    "id": "269",
    "marchio_id": "1",
    "indirizzo": "SS 56 KM 21+051",
    "comune": "CORMONS ",
    "longitudine": "13.436222",
    "latitudine": "45.953024",
    "tipo": "STRADALE"
  },
  {
    "id": "270",
    "marchio_id": "2",
    "indirizzo": "MADONNA DI STRADA 5",
    "comune": "SAN GIOVANNI AL NATISONE ",
    "longitudine": "13.39494",
    "latitudine": "45.954194",
    "tipo": "STRADALE"
  },
  {
    "id": "271",
    "marchio_id": "3",
    "indirizzo": "VIA PALMARINA 38",
    "comune": "SAN GIOVANNI AL NATISONE ",
    "longitudine": "13.398204",
    "latitudine": "45.967531",
    "tipo": "STRADALE"
  },
  {
    "id": "272",
    "marchio_id": "4",
    "indirizzo": "VIA NAZIONALE 32",
    "comune": "SAN GIOVANNI AL NATISONE ",
    "longitudine": "13.396193",
    "latitudine": "45.973555",
    "tipo": "STRADALE"
  },
  {
    "id": "274",
    "marchio_id": "5",
    "indirizzo": "VIA DEL COLLIO 12",
    "comune": "SAN GIOVANNI AL NATISONE ",
    "longitudine": "13.405313",
    "latitudine": "45.9838",
    "tipo": "STRADALE"
  },
  {
    "id": "276",
    "marchio_id": "6",
    "indirizzo": "VIA DELLA STAZIONE 78",
    "comune": "MANZANO ",
    "longitudine": "13.37605",
    "latitudine": "45.988705",
    "tipo": "STRADALE"
  },
  {
    "id": "277",
    "marchio_id": "1",
    "indirizzo": "VIA S. GIOVANNI 92",
    "comune": "MANZANO ",
    "longitudine": "13.397255",
    "latitudine": "45.988924",
    "tipo": "STRADALE"
  },
  {
    "id": "278",
    "marchio_id": "2",
    "indirizzo": "VIA UDINE 30",
    "comune": "MANZANO ",
    "longitudine": "13.365224",
    "latitudine": "45.990512",
    "tipo": "STRADALE"
  },
  {
    "id": "279",
    "marchio_id": "3",
    "indirizzo": "S.S. 356 DI CIVIDALE KM 38+872",
    "comune": "CORNO DI ROSAZZO ",
    "longitudine": "13.436778",
    "latitudine": "46.008512",
    "tipo": "STRADALE"
  },
  {
    "id": "280",
    "marchio_id": "4",
    "indirizzo": "VIA RICHINVELDA 8",
    "comune": "SAN GIORGIO DELLA RICHINVELDA ",
    "longitudine": "12.866662",
    "latitudine": "46.045675",
    "tipo": "STRADALE"
  },
  {
    "id": "281",
    "marchio_id": "5",
    "indirizzo": "VIA DELLA REPUBBLICA 4",
    "comune": "SPILIMBERGO ",
    "longitudine": "12.899593",
    "latitudine": "46.106682",
    "tipo": "STRADALE"
  },
  {
    "id": "283",
    "marchio_id": "6",
    "indirizzo": "FR.TURRIDA VIA FOGAZZARO 35",
    "comune": "SEDEGLIANO ",
    "longitudine": "12.937229",
    "latitudine": "46.027008",
    "tipo": "STRADALE"
  },
  {
    "id": "284",
    "marchio_id": "1",
    "indirizzo": "VIA UDINE 39",
    "comune": "DIGNANO ",
    "longitudine": "12.95645",
    "latitudine": "46.08539",
    "tipo": "STRADALE"
  },
  {
    "id": "285",
    "marchio_id": "2",
    "indirizzo": "S.S. 464 KM 31+299",
    "comune": "COSEANO ",
    "longitudine": "13.029986",
    "latitudine": "46.085279",
    "tipo": "STRADALE"
  },
  {
    "id": "287",
    "marchio_id": "3",
    "indirizzo": "VIA NUOVA 3",
    "comune": "SAN VITO DI FAGAGNA ",
    "longitudine": "13.07302",
    "latitudine": "46.092631",
    "tipo": "STRADALE"
  },
  {
    "id": "288",
    "marchio_id": "4",
    "indirizzo": "SPILIMBERGO SS 464",
    "comune": "FAGAGNA ",
    "longitudine": "13.090621",
    "latitudine": "46.09716",
    "tipo": "STRADALE"
  },
  {
    "id": "289",
    "marchio_id": "5",
    "indirizzo": "VIA SAN VITO N 7",
    "comune": "FAGAGNA ",
    "longitudine": "13.093626",
    "latitudine": "46.104809",
    "tipo": "STRADALE"
  },
  {
    "id": "290",
    "marchio_id": "6",
    "indirizzo": "S.P. N. 10 KM 18+847",
    "comune": "BASILIANO ",
    "longitudine": "13.102719",
    "latitudine": "46.030228",
    "tipo": "STRADALE"
  },
  {
    "id": "291",
    "marchio_id": "1",
    "indirizzo": "SPILIMBERGO 122",
    "comune": "FAGAGNA ",
    "longitudine": "13.104549",
    "latitudine": "46.09911",
    "tipo": "STRADALE"
  },
  {
    "id": "292",
    "marchio_id": "2",
    "indirizzo": "VIALE EUROPA UNITA 40",
    "comune": "BASILIANO ",
    "longitudine": "13.10902",
    "latitudine": "46.014781",
    "tipo": "STRADALE"
  },
  {
    "id": "293",
    "marchio_id": "3",
    "indirizzo": "VIA SPILIMBERGO 188",
    "comune": "MARTIGNACCO ",
    "longitudine": "13.144845",
    "latitudine": "46.089802",
    "tipo": "STRADALE"
  },
  {
    "id": "294",
    "marchio_id": "4",
    "indirizzo": "SS 13 KM 120 VIA ZORUTTI 94",
    "comune": "CAMPOFORMIDO ",
    "longitudine": "13.147833",
    "latitudine": "46.016271",
    "tipo": "STRADALE"
  },
  {
    "id": "298",
    "marchio_id": "5",
    "indirizzo": "VIA CIVIDINA 436",
    "comune": "MARTIGNACCO ",
    "longitudine": "13.172833",
    "latitudine": "46.100719",
    "tipo": "STRADALE"
  },
  {
    "id": "299",
    "marchio_id": "6",
    "indirizzo": "VIA SPILIMBERGO 152",
    "comune": "MARTIGNACCO ",
    "longitudine": "13.173706",
    "latitudine": "46.082475",
    "tipo": "STRADALE"
  },
  {
    "id": "300",
    "marchio_id": "1",
    "indirizzo": "VIA BARDELLI",
    "comune": "MARTIGNACCO ",
    "longitudine": "13.180706",
    "latitudine": "46.083801",
    "tipo": "STRADALE"
  },
  {
    "id": "302",
    "marchio_id": "2",
    "indirizzo": "VIA DEI BRAZZA' 30",
    "comune": "PAGNACCO ",
    "longitudine": "13.19191",
    "latitudine": "46.092988",
    "tipo": "STRADALE"
  },
  {
    "id": "303",
    "marchio_id": "3",
    "indirizzo": "VIA CAMPOFORMIDO 82",
    "comune": "PASIAN DI PRATO ",
    "longitudine": "13.192613",
    "latitudine": "46.043332",
    "tipo": "STRADALE"
  },
  {
    "id": "304",
    "marchio_id": "4",
    "indirizzo": "A23 - ZUGLIANO OVEST",
    "comune": "POZZUOLO DEL FRIULI ",
    "longitudine": "13.218172",
    "latitudine": "46.014789",
    "tipo": "STRADALE"
  },
  {
    "id": "305",
    "marchio_id": "5",
    "indirizzo": "VIA CAMPOFORMIDO 61",
    "comune": "CAMPOFORMIDO ",
    "longitudine": "13.192345",
    "latitudine": "46.024009",
    "tipo": "STRADALE"
  },
  {
    "id": "306",
    "marchio_id": "6",
    "indirizzo": "VIA ADRIATICA 118",
    "comune": "CAMPOFORMIDO ",
    "longitudine": "13.21717",
    "latitudine": "46.03217",
    "tipo": "STRADALE"
  },
  {
    "id": "308",
    "marchio_id": "1",
    "indirizzo": "VIA CAMPOFORMIDO 20",
    "comune": "PASIAN DI PRATO ",
    "longitudine": "13.196286",
    "latitudine": "46.046101",
    "tipo": "STRADALE"
  },
  {
    "id": "309",
    "marchio_id": "2",
    "indirizzo": "V.LE VENEZIA 506",
    "comune": "UDINE ",
    "longitudine": "13.203957",
    "latitudine": "46.049537",
    "tipo": "STRADALE"
  },
  {
    "id": "310",
    "marchio_id": "3",
    "indirizzo": "TANGENZIALE OVEST 1",
    "comune": "UDINE ",
    "longitudine": "13.201186",
    "latitudine": "46.055873",
    "tipo": "STRADALE"
  },
  {
    "id": "311",
    "marchio_id": "4",
    "indirizzo": "VIA MENTANA 123",
    "comune": "UDINE ",
    "longitudine": "13.220171",
    "latitudine": "46.059478",
    "tipo": "STRADALE"
  },
  {
    "id": "312",
    "marchio_id": "5",
    "indirizzo": "VIALE LEDRA 40",
    "comune": "UDINE ",
    "longitudine": "13.227316",
    "latitudine": "46.062992",
    "tipo": "STRADALE"
  },
  {
    "id": "313",
    "marchio_id": "6",
    "indirizzo": "V.LE MONSIGNOR NOGARA 91",
    "comune": "UDINE ",
    "longitudine": "13.212511",
    "latitudine": "46.064178",
    "tipo": "STRADALE"
  },
  {
    "id": "314",
    "marchio_id": "1",
    "indirizzo": "VIA M.G. NOGARA 92",
    "comune": "UDINE ",
    "longitudine": "13.212024",
    "latitudine": "46.064513",
    "tipo": "STRADALE"
  },
  {
    "id": "315",
    "marchio_id": "2",
    "indirizzo": "TANGENZIALE OVEST SS KM129+429",
    "comune": "UDINE ",
    "longitudine": "13.196636",
    "latitudine": "46.070546",
    "tipo": "STRADALE"
  },
  {
    "id": "317",
    "marchio_id": "3",
    "indirizzo": "VIA MARTIGNACCO 87",
    "comune": "UDINE ",
    "longitudine": "13.221851",
    "latitudine": "46.073648",
    "tipo": "STRADALE"
  },
  {
    "id": "318",
    "marchio_id": "4",
    "indirizzo": "VIA MARTIGNACCO 293",
    "comune": "UDINE ",
    "longitudine": "13.204247",
    "latitudine": "46.074139",
    "tipo": "STRADALE"
  },
  {
    "id": "319",
    "marchio_id": "5",
    "indirizzo": "VIA MARTIGNACCO 248",
    "comune": "UDINE ",
    "longitudine": "13.202486",
    "latitudine": "46.073958",
    "tipo": "STRADALE"
  },
  {
    "id": "320",
    "marchio_id": "6",
    "indirizzo": "VIA PIERI 18",
    "comune": "UDINE ",
    "longitudine": "13.226354",
    "latitudine": "46.075378",
    "tipo": "STRADALE"
  },
  {
    "id": "321",
    "marchio_id": "1",
    "indirizzo": "VIA PASOLINI 203",
    "comune": "UDINE ",
    "longitudine": "13.20776",
    "latitudine": "46.080439",
    "tipo": "STRADALE"
  },
  {
    "id": "322",
    "marchio_id": "2",
    "indirizzo": "VIA COLUGNA 175",
    "comune": "UDINE ",
    "longitudine": "13.217038",
    "latitudine": "46.085856",
    "tipo": "STRADALE"
  },
  {
    "id": "323",
    "marchio_id": "3",
    "indirizzo": "VIA COTONIFICIO 241",
    "comune": "UDINE ",
    "longitudine": "13.214463",
    "latitudine": "46.090624",
    "tipo": "STRADALE"
  },
  {
    "id": "324",
    "marchio_id": "4",
    "indirizzo": "VIA FELETTO 233",
    "comune": "UDINE ",
    "longitudine": "13.222439",
    "latitudine": "46.091615",
    "tipo": "STRADALE"
  },
  {
    "id": "325",
    "marchio_id": "5",
    "indirizzo": "VIA PASCATS - KM 3.1",
    "comune": "TAVAGNACCO ",
    "longitudine": "13.224966",
    "latitudine": "46.094123",
    "tipo": "STRADALE"
  },
  {
    "id": "326",
    "marchio_id": "6",
    "indirizzo": "VIALE VENEZIA SS 13 PONTEBBANA",
    "comune": "TAVAGNACCO ",
    "longitudine": "13.197524",
    "latitudine": "46.097013",
    "tipo": "STRADALE"
  },
  {
    "id": "327",
    "marchio_id": "1",
    "indirizzo": "VIA 4 NOVEMBRE 17",
    "comune": "TAVAGNACCO ",
    "longitudine": "13.222025",
    "latitudine": "46.100019",
    "tipo": "STRADALE"
  },
  {
    "id": "328",
    "marchio_id": "2",
    "indirizzo": "VIA MILANO, 25",
    "comune": "TAVAGNACCO ",
    "longitudine": "13.206304",
    "latitudine": "46.100202",
    "tipo": "STRADALE"
  },
  {
    "id": "329",
    "marchio_id": "3",
    "indirizzo": "VIA LUMIGNACCO 501 S.P. 94",
    "comune": "UDINE ",
    "longitudine": "13.239806",
    "latitudine": "46.022086",
    "tipo": "STRADALE"
  },
  {
    "id": "330",
    "marchio_id": "4",
    "indirizzo": "VIA ADENAUER",
    "comune": "UDINE ",
    "longitudine": "13.246169",
    "latitudine": "46.033652",
    "tipo": "STRADALE"
  },
  {
    "id": "331",
    "marchio_id": "5",
    "indirizzo": "ADENAUER",
    "comune": "UDINE ",
    "longitudine": "13.246371",
    "latitudine": "46.036904",
    "tipo": "STRADALE"
  },
  {
    "id": "332",
    "marchio_id": "6",
    "indirizzo": "VIA ADENHAUER 2",
    "comune": "UDINE ",
    "longitudine": "13.24692",
    "latitudine": "46.037598",
    "tipo": "STRADALE"
  },
  {
    "id": "333",
    "marchio_id": "1",
    "indirizzo": "V.LE PALMANOVA 139",
    "comune": "UDINE ",
    "longitudine": "13.248592",
    "latitudine": "46.049174",
    "tipo": "STRADALE"
  },
  {
    "id": "334",
    "marchio_id": "2",
    "indirizzo": "V.LE PALMANOVA 129",
    "comune": "UDINE ",
    "longitudine": "13.247828",
    "latitudine": "46.050592",
    "tipo": "STRADALE"
  },
  {
    "id": "335",
    "marchio_id": "3",
    "indirizzo": "VIA MARSALA 27",
    "comune": "UDINE ",
    "longitudine": "13.238327",
    "latitudine": "46.05217",
    "tipo": "STRADALE"
  },
  {
    "id": "336",
    "marchio_id": "4",
    "indirizzo": "V.LE PALMANOVA 75",
    "comune": "UDINE ",
    "longitudine": "13.246632",
    "latitudine": "46.053438",
    "tipo": "STRADALE"
  },
  {
    "id": "337",
    "marchio_id": "5",
    "indirizzo": "V.LE DELLE FERRIERE 20",
    "comune": "UDINE ",
    "longitudine": "13.231361",
    "latitudine": "46.054664",
    "tipo": "STRADALE"
  },
  {
    "id": "338",
    "marchio_id": "6",
    "indirizzo": "V.LE FERRIERE 3/C",
    "comune": "UDINE ",
    "longitudine": "13.234678",
    "latitudine": "46.055216",
    "tipo": "STRADALE"
  },
  {
    "id": "339",
    "marchio_id": "1",
    "indirizzo": "V.LE DUODO 20",
    "comune": "UDINE ",
    "longitudine": "13.228942",
    "latitudine": "46.056697",
    "tipo": "STRADALE"
  },
  {
    "id": "341",
    "marchio_id": "2",
    "indirizzo": "VIALE XXIII MARZO 16",
    "comune": "UDINE ",
    "longitudine": "13.2484",
    "latitudine": "46.05945",
    "tipo": "STRADALE"
  },
  {
    "id": "342",
    "marchio_id": "3",
    "indirizzo": "VIALE TRIESTE 3",
    "comune": "UDINE ",
    "longitudine": "13.244362",
    "latitudine": "46.067954",
    "tipo": "STRADALE"
  },
  {
    "id": "344",
    "marchio_id": "4",
    "indirizzo": "VIA MARTIGNACCO 5",
    "comune": "UDINE ",
    "longitudine": "13.227786",
    "latitudine": "46.071123",
    "tipo": "STRADALE"
  },
  {
    "id": "345",
    "marchio_id": "5",
    "indirizzo": "VIA A. CACCIA 23",
    "comune": "UDINE ",
    "longitudine": "13.237155",
    "latitudine": "46.071099",
    "tipo": "STRADALE"
  },
  {
    "id": "346",
    "marchio_id": "6",
    "indirizzo": "VIA GENERAL CANTORE 40",
    "comune": "UDINE ",
    "longitudine": "13.238645",
    "latitudine": "46.075119",
    "tipo": "STRADALE"
  },
  {
    "id": "347",
    "marchio_id": "1",
    "indirizzo": "VIA GENERAL CANTORE 31",
    "comune": "UDINE ",
    "longitudine": "13.237582",
    "latitudine": "46.075538",
    "tipo": "STRADALE"
  },
  {
    "id": "348",
    "marchio_id": "2",
    "indirizzo": "P.LE CHIAVRIS 63",
    "comune": "UDINE ",
    "longitudine": "13.234811",
    "latitudine": "46.078872",
    "tipo": "STRADALE"
  },
  {
    "id": "350",
    "marchio_id": "3",
    "indirizzo": "LOC.PADERNO-V.LE TRICESIMO 93",
    "comune": "UDINE ",
    "longitudine": "13.233097",
    "latitudine": "46.087536",
    "tipo": "STRADALE"
  },
  {
    "id": "351",
    "marchio_id": "4",
    "indirizzo": "VIA NAZIONALE 10",
    "comune": "TAVAGNACCO ",
    "longitudine": "13.230097",
    "latitudine": "46.101162",
    "tipo": "STRADALE"
  },
  {
    "id": "352",
    "marchio_id": "5",
    "indirizzo": "VIA NAZIONALE 44",
    "comune": "TAVAGNACCO ",
    "longitudine": "13.229525",
    "latitudine": "46.104622",
    "tipo": "STRADALE"
  },
  {
    "id": "353",
    "marchio_id": "6",
    "indirizzo": "V.LE PALMANOVA 293",
    "comune": "UDINE ",
    "longitudine": "13.252799",
    "latitudine": "46.039694",
    "tipo": "STRADALE"
  },
  {
    "id": "354",
    "marchio_id": "1",
    "indirizzo": "FRAZ.GODIA V. LA SPEZIA 380",
    "comune": "UDINE ",
    "longitudine": "13.255361",
    "latitudine": "46.0978",
    "tipo": "STRADALE"
  },
  {
    "id": "356",
    "marchio_id": "2",
    "indirizzo": "VIA TANGENZIALE SUD KM 2+195",
    "comune": "UDINE ",
    "longitudine": "13.256964",
    "latitudine": "46.016618",
    "tipo": "STRADALE"
  },
  {
    "id": "358",
    "marchio_id": "3",
    "indirizzo": "VIALE PALMANOVA SS 56 KM 4+450",
    "comune": "UDINE ",
    "longitudine": "13.26081",
    "latitudine": "46.023031",
    "tipo": "STRADALE"
  },
  {
    "id": "361",
    "marchio_id": "4",
    "indirizzo": "S.S.352 KM 0+342",
    "comune": "UDINE ",
    "longitudine": "13.269498",
    "latitudine": "46.015835",
    "tipo": "STRADALE"
  },
  {
    "id": "362",
    "marchio_id": "5",
    "indirizzo": "VIA CIVIDALE 419",
    "comune": "UDINE ",
    "longitudine": "13.272505",
    "latitudine": "46.074571",
    "tipo": "STRADALE"
  },
  {
    "id": "363",
    "marchio_id": "6",
    "indirizzo": "S.R. 56 VIA NAZIONALE",
    "comune": "PRADAMANO ",
    "longitudine": "13.272499",
    "latitudine": "46.023112",
    "tipo": "STRADALE"
  },
  {
    "id": "364",
    "marchio_id": "1",
    "indirizzo": "VIA PERTINI 15",
    "comune": "PRADAMANO ",
    "longitudine": "13.284269",
    "latitudine": "46.029565",
    "tipo": "STRADALE"
  },
  {
    "id": "365",
    "marchio_id": "2",
    "indirizzo": "VIA MONTEBIANCO 2",
    "comune": "POVOLETTO ",
    "longitudine": "13.288693",
    "latitudine": "46.096835",
    "tipo": "STRADALE"
  },
  {
    "id": "366",
    "marchio_id": "3",
    "indirizzo": "SS 54 LOC.PONTE SUL TORRE",
    "comune": "REMANZACCO ",
    "longitudine": "13.301171",
    "latitudine": "46.078735",
    "tipo": "STRADALE"
  },
  {
    "id": "367",
    "marchio_id": "4",
    "indirizzo": "VIA UDINE 22",
    "comune": "PRADAMANO ",
    "longitudine": "13.301622",
    "latitudine": "46.033081",
    "tipo": "STRADALE"
  },
  {
    "id": "368",
    "marchio_id": "5",
    "indirizzo": "S.P. N. 96 CERNEGLONS, 100",
    "comune": "REMANZACCO ",
    "longitudine": "13.311194",
    "latitudine": "46.060827",
    "tipo": "STRADALE"
  },
  {
    "id": "369",
    "marchio_id": "6",
    "indirizzo": "NAZIONALE, 38 SS 54 KM 10+739",
    "comune": "MOIMACCO ",
    "longitudine": "13.362896",
    "latitudine": "46.086136",
    "tipo": "STRADALE"
  },
  {
    "id": "370",
    "marchio_id": "1",
    "indirizzo": "SP 48 DI PREPOTTO KM 7+276",
    "comune": "PREMARIACCO ",
    "longitudine": "13.382791",
    "latitudine": "46.058632",
    "tipo": "STRADALE"
  },
  {
    "id": "371",
    "marchio_id": "2",
    "indirizzo": "FRAZ OLEIS SP NATISONE KM2+300",
    "comune": "MANZANO ",
    "longitudine": "13.388072",
    "latitudine": "46.014605",
    "tipo": "STRADALE"
  },
  {
    "id": "372",
    "marchio_id": "3",
    "indirizzo": "INDIPENDENZA 1",
    "comune": "CIVIDALE DEL FRIULI ",
    "longitudine": "13.39268",
    "latitudine": "46.082641",
    "tipo": "STRADALE"
  },
  {
    "id": "373",
    "marchio_id": "4",
    "indirizzo": "VIA UDINE 76",
    "comune": "CIVIDALE DEL FRIULI ",
    "longitudine": "13.415825",
    "latitudine": "46.0908",
    "tipo": "STRADALE"
  },
  {
    "id": "374",
    "marchio_id": "5",
    "indirizzo": "VIALE LIBERTA' 11",
    "comune": "CIVIDALE DEL FRIULI ",
    "longitudine": "13.420351",
    "latitudine": "46.092364",
    "tipo": "STRADALE"
  },
  {
    "id": "375",
    "marchio_id": "6",
    "indirizzo": "VIA FRIULI 20",
    "comune": "CIVIDALE DEL FRIULI ",
    "longitudine": "13.424007",
    "latitudine": "46.081904",
    "tipo": "STRADALE"
  },
  {
    "id": "376",
    "marchio_id": "1",
    "indirizzo": "VIA SANGUARZO 25",
    "comune": "CIVIDALE DEL FRIULI ",
    "longitudine": "13.442504",
    "latitudine": "46.099976",
    "tipo": "STRADALE"
  },
  {
    "id": "378",
    "marchio_id": "2",
    "indirizzo": "SS 464 KM 15+276",
    "comune": "SPILIMBERGO ",
    "longitudine": "12.868631",
    "latitudine": "46.132404",
    "tipo": "STRADALE"
  },
  {
    "id": "381",
    "marchio_id": "3",
    "indirizzo": "VIA VAL COSA 31",
    "comune": "TRAVESIO ",
    "longitudine": "12.877658",
    "latitudine": "46.182455",
    "tipo": "STRADALE"
  },
  {
    "id": "382",
    "marchio_id": "4",
    "indirizzo": "VIA RISORGIMENTO 5",
    "comune": "SEQUALS ",
    "longitudine": "12.88699",
    "latitudine": "46.159162",
    "tipo": "STRADALE"
  },
  {
    "id": "383",
    "marchio_id": "5",
    "indirizzo": "DELL'OSPEDALE 1",
    "comune": "SPILIMBERGO ",
    "longitudine": "12.888589",
    "latitudine": "46.109237",
    "tipo": "STRADALE"
  },
  {
    "id": "384",
    "marchio_id": "6",
    "indirizzo": "VIA DEI PONTI 6",
    "comune": "SPILIMBERGO ",
    "longitudine": "12.89049",
    "latitudine": "46.116519",
    "tipo": "STRADALE"
  },
  {
    "id": "385",
    "marchio_id": "1",
    "indirizzo": "VIA UMBERTO I 35",
    "comune": "SPILIMBERGO ",
    "longitudine": "12.899126",
    "latitudine": "46.115877",
    "tipo": "STRADALE"
  },
  {
    "id": "386",
    "marchio_id": "2",
    "indirizzo": "VIA MANIAGO 2",
    "comune": "SPILIMBERGO ",
    "longitudine": "12.899224",
    "latitudine": "46.117486",
    "tipo": "STRADALE"
  },
  {
    "id": "387",
    "marchio_id": "3",
    "indirizzo": "VIA DE GASPERI 69",
    "comune": "DIGNANO ",
    "longitudine": "12.957486",
    "latitudine": "46.114637",
    "tipo": "STRADALE"
  },
  {
    "id": "388",
    "marchio_id": "4",
    "indirizzo": "VIA NAZIONALE, 12",
    "comune": "SAN DANIELE DEL FRIULI ",
    "longitudine": "12.978838",
    "latitudine": "46.144131",
    "tipo": "STRADALE"
  },
  {
    "id": "390",
    "marchio_id": "5",
    "indirizzo": "VIA VENEZIA ,89/91",
    "comune": "SAN DANIELE DEL FRIULI ",
    "longitudine": "12.988839",
    "latitudine": "46.148741",
    "tipo": "STRADALE"
  },
  {
    "id": "391",
    "marchio_id": "6",
    "indirizzo": "VIA CARNIA, 87",
    "comune": "RIVE D'ARCANO ",
    "longitudine": "13.000838",
    "latitudine": "46.121053",
    "tipo": "STRADALE"
  },
  {
    "id": "392",
    "marchio_id": "1",
    "indirizzo": "VIA VENEZIA 9",
    "comune": "SAN DANIELE DEL FRIULI ",
    "longitudine": "13.003284",
    "latitudine": "46.160719",
    "tipo": "STRADALE"
  },
  {
    "id": "393",
    "marchio_id": "2",
    "indirizzo": "V.LE TRENTO E TRIESTE 83",
    "comune": "SAN DANIELE DEL FRIULI ",
    "longitudine": "13.008767",
    "latitudine": "46.152506",
    "tipo": "STRADALE"
  },
  {
    "id": "394",
    "marchio_id": "3",
    "indirizzo": "VIA FAGAGNA 15",
    "comune": "RIVE D'ARCANO ",
    "longitudine": "13.031001",
    "latitudine": "46.11177",
    "tipo": "STRADALE"
  },
  {
    "id": "395",
    "marchio_id": "4",
    "indirizzo": "SS 463 KM 11+518",
    "comune": "MAJANO ",
    "longitudine": "13.04361",
    "latitudine": "46.17933",
    "tipo": "STRADALE"
  },
  {
    "id": "396",
    "marchio_id": "5",
    "indirizzo": "VIA RINO SNAIDERO 16",
    "comune": "MAJANO ",
    "longitudine": "13.059174",
    "latitudine": "46.185841",
    "tipo": "STRADALE"
  },
  {
    "id": "397",
    "marchio_id": "6",
    "indirizzo": "VIA RINO SNAIDERO 7",
    "comune": "MAJANO ",
    "longitudine": "13.062505",
    "latitudine": "46.185092",
    "tipo": "STRADALE"
  },
  {
    "id": "398",
    "marchio_id": "1",
    "indirizzo": "VIA UDINE 129",
    "comune": "MAJANO ",
    "longitudine": "13.066807",
    "latitudine": "46.17374",
    "tipo": "STRADALE"
  },
  {
    "id": "399",
    "marchio_id": "2",
    "indirizzo": "VIA UDINE 61",
    "comune": "FAGAGNA ",
    "longitudine": "13.090162",
    "latitudine": "46.10954",
    "tipo": "STRADALE"
  },
  {
    "id": "400",
    "marchio_id": "3",
    "indirizzo": "A23 LEDRA EST",
    "comune": "COLLOREDO DI MONTE ALBANO ",
    "longitudine": "13.11619",
    "latitudine": "46.188104",
    "tipo": "STRADALE"
  },
  {
    "id": "401",
    "marchio_id": "4",
    "indirizzo": "A23 LEDRA OVEST",
    "comune": "COLLOREDO DI MONTE ALBANO ",
    "longitudine": "13.119558",
    "latitudine": "46.185841",
    "tipo": "STRADALE"
  },
  {
    "id": "403",
    "marchio_id": "5",
    "indirizzo": "VIA ROMA 16",
    "comune": "TREPPO GRANDE ",
    "longitudine": "13.158475",
    "latitudine": "46.188917",
    "tipo": "STRADALE"
  },
  {
    "id": "404",
    "marchio_id": "6",
    "indirizzo": "VIA UDINE 10",
    "comune": "PAGNACCO ",
    "longitudine": "13.188764",
    "latitudine": "46.122087",
    "tipo": "STRADALE"
  },
  {
    "id": "407",
    "marchio_id": "1",
    "indirizzo": "VIA PONTEBBANA 69 - SS13 KM 142.171",
    "comune": "TRICESIMO ",
    "longitudine": "13.209276",
    "latitudine": "46.16569",
    "tipo": "STRADALE"
  },
  {
    "id": "409",
    "marchio_id": "2",
    "indirizzo": "SS 13 KM 141+556",
    "comune": "TRICESIMO ",
    "longitudine": "13.210789",
    "latitudine": "46.160012",
    "tipo": "STRADALE"
  },
  {
    "id": "410",
    "marchio_id": "3",
    "indirizzo": "VIA MARCONI 90",
    "comune": "TAVAGNACCO ",
    "longitudine": "13.217369",
    "latitudine": "46.118159",
    "tipo": "STRADALE"
  },
  {
    "id": "412",
    "marchio_id": "4",
    "indirizzo": "VIA ROMA, 173",
    "comune": "TRICESIMO ",
    "longitudine": "13.220055",
    "latitudine": "46.150033",
    "tipo": "STRADALE"
  },
  {
    "id": "413",
    "marchio_id": "5",
    "indirizzo": "VIA BUONARROTI 10",
    "comune": "TAVAGNACCO ",
    "longitudine": "13.220263",
    "latitudine": "46.106984",
    "tipo": "STRADALE"
  },
  {
    "id": "414",
    "marchio_id": "6",
    "indirizzo": "VIA NAZIONALE 22",
    "comune": "REANA DEL ROJALE ",
    "longitudine": "13.221707",
    "latitudine": "46.139761",
    "tipo": "STRADALE"
  },
  {
    "id": "415",
    "marchio_id": "1",
    "indirizzo": "VIA NAZIONALE 48",
    "comune": "REANA DEL ROJALE ",
    "longitudine": "13.22221",
    "latitudine": "46.136558",
    "tipo": "STRADALE"
  },
  {
    "id": "416",
    "marchio_id": "2",
    "indirizzo": "VIA ALFIERI 10",
    "comune": "TAVAGNACCO ",
    "longitudine": "13.223993",
    "latitudine": "46.116521",
    "tipo": "STRADALE"
  },
  {
    "id": "418",
    "marchio_id": "3",
    "indirizzo": "VIA SAN MARCO 2",
    "comune": "REANA DEL ROJALE ",
    "longitudine": "13.243651",
    "latitudine": "46.158114",
    "tipo": "STRADALE"
  },
  {
    "id": "419",
    "marchio_id": "4",
    "indirizzo": "6OC.ZOMPITTA VIA DEL PONTE 2",
    "comune": "REANA DEL ROJALE ",
    "longitudine": "13.256338",
    "latitudine": "46.163367",
    "tipo": "STRADALE"
  },
  {
    "id": "420",
    "marchio_id": "5",
    "indirizzo": "VIA UDINE 10",
    "comune": "NIMIS ",
    "longitudine": "13.256975",
    "latitudine": "46.194822",
    "tipo": "STRADALE"
  },
  {
    "id": "422",
    "marchio_id": "6",
    "indirizzo": "LA SPEZIA LOC. GODIA SP 15",
    "comune": "UDINE ",
    "longitudine": "13.264855",
    "latitudine": "46.107165",
    "tipo": "STRADALE"
  },
  {
    "id": "423",
    "marchio_id": "1",
    "indirizzo": "FRAZ.RAVOSA V.RIO MAIOR 18",
    "comune": "POVOLETTO ",
    "longitudine": "13.291263",
    "latitudine": "46.153914",
    "tipo": "STRADALE"
  },
  {
    "id": "424",
    "marchio_id": "2",
    "indirizzo": "VIA UDINE 68",
    "comune": "FAEDIS ",
    "longitudine": "13.343939",
    "latitudine": "46.14978",
    "tipo": "STRADALE"
  },
  {
    "id": "425",
    "marchio_id": "3",
    "indirizzo": "P.ZZA 1 MAGGIO 11",
    "comune": "FAEDIS ",
    "longitudine": "13.345765",
    "latitudine": "46.152608",
    "tipo": "STRADALE"
  },
  {
    "id": "426",
    "marchio_id": "4",
    "indirizzo": "LOC.CROSADA 5",
    "comune": "TORREANO ",
    "longitudine": "13.407069",
    "latitudine": "46.111633",
    "tipo": "STRADALE"
  },
  {
    "id": "427",
    "marchio_id": "5",
    "indirizzo": "FRAZ.FLAGOGNA VIA PINZANO 8",
    "comune": "FORGARIA NEL FRIULI ",
    "longitudine": "12.95462",
    "latitudine": "46.2109",
    "tipo": "STRADALE"
  },
  {
    "id": "429",
    "marchio_id": "6",
    "indirizzo": "CORNINO VIA NAPOLEONICA 9",
    "comune": "FORGARIA NEL FRIULI ",
    "longitudine": "13.010902",
    "latitudine": "46.224757",
    "tipo": "STRADALE"
  },
  {
    "id": "430",
    "marchio_id": "1",
    "indirizzo": "VIA ROMA 19",
    "comune": "CAVAZZO CARNICO ",
    "longitudine": "13.03919",
    "latitudine": "46.36838",
    "tipo": "STRADALE"
  },
  {
    "id": "431",
    "marchio_id": "2",
    "indirizzo": "SS 52 CARNIA KM 5+906",
    "comune": "AMARO ",
    "longitudine": "13.064815",
    "latitudine": "46.372618",
    "tipo": "STRADALE"
  },
  {
    "id": "433",
    "marchio_id": "3",
    "indirizzo": "LOC.RIVOLI SS 463 KM 4+515",
    "comune": "OSOPPO ",
    "longitudine": "13.075135",
    "latitudine": "46.235837",
    "tipo": "STRADALE"
  },
  {
    "id": "435",
    "marchio_id": "4",
    "indirizzo": "SS  512 KM  19+530",
    "comune": "TRASAGHIS ",
    "longitudine": "13.08072",
    "latitudine": "46.281281",
    "tipo": "STRADALE"
  },
  {
    "id": "437",
    "marchio_id": "5",
    "indirizzo": "VIA S.DANIELE 36",
    "comune": "GEMONA DEL FRIULI ",
    "longitudine": "13.102189",
    "latitudine": "46.259463",
    "tipo": "STRADALE"
  },
  {
    "id": "438",
    "marchio_id": "6",
    "indirizzo": "VIA PROVINCIALE OSOVANA 82",
    "comune": "BUJA ",
    "longitudine": "13.102476",
    "latitudine": "46.210117",
    "tipo": "STRADALE"
  },
  {
    "id": "439",
    "marchio_id": "1",
    "indirizzo": "VIA TABOGA 112",
    "comune": "GEMONA DEL FRIULI ",
    "longitudine": "13.107621",
    "latitudine": "46.268775",
    "tipo": "STRADALE"
  },
  {
    "id": "440",
    "marchio_id": "2",
    "indirizzo": "SS 13 KM 155+850",
    "comune": "GEMONA DEL FRIULI ",
    "longitudine": "13.107917",
    "latitudine": "46.263248",
    "tipo": "STRADALE"
  },
  {
    "id": "441",
    "marchio_id": "3",
    "indirizzo": "VIA PROVINCIALE LAVIO 5",
    "comune": "BUJA ",
    "longitudine": "13.117918",
    "latitudine": "46.202899",
    "tipo": "STRADALE"
  },
  {
    "id": "442",
    "marchio_id": "4",
    "indirizzo": "OSOPPO, 130",
    "comune": "GEMONA DEL FRIULI ",
    "longitudine": "13.119088",
    "latitudine": "46.268093",
    "tipo": "STRADALE"
  },
  {
    "id": "443",
    "marchio_id": "5",
    "indirizzo": "VIA SANTO STEFANO 144",
    "comune": "BUJA ",
    "longitudine": "13.120578",
    "latitudine": "46.203522",
    "tipo": "STRADALE"
  },
  {
    "id": "444",
    "marchio_id": "6",
    "indirizzo": "VIA BARIGLARIA 70",
    "comune": "GEMONA DEL FRIULI ",
    "longitudine": "13.122354",
    "latitudine": "46.287152",
    "tipo": "STRADALE"
  },
  {
    "id": "445",
    "marchio_id": "1",
    "indirizzo": "SS 13 PONTEBBANA 26",
    "comune": "VENZONE ",
    "longitudine": "13.13412",
    "latitudine": "46.326783",
    "tipo": "STRADALE"
  },
  {
    "id": "446",
    "marchio_id": "2",
    "indirizzo": "VIA PONTEBBANA 61",
    "comune": "VENZONE ",
    "longitudine": "13.135473",
    "latitudine": "46.362915",
    "tipo": "STRADALE"
  },
  {
    "id": "447",
    "marchio_id": "3",
    "indirizzo": "VIA NAZIONALE 8",
    "comune": "MAGNANO IN RIVIERA ",
    "longitudine": "13.165526",
    "latitudine": "46.230191",
    "tipo": "STRADALE"
  },
  {
    "id": "448",
    "marchio_id": "4",
    "indirizzo": "LOC.COLLALTO SS 13 KM 146+398",
    "comune": "TARCENTO ",
    "longitudine": "13.188385",
    "latitudine": "46.206179",
    "tipo": "STRADALE"
  },
  {
    "id": "449",
    "marchio_id": "5",
    "indirizzo": "VIA UDINE 28",
    "comune": "TARCENTO ",
    "longitudine": "13.212778",
    "latitudine": "46.212603",
    "tipo": "STRADALE"
  },
  {
    "id": "451",
    "marchio_id": "6",
    "indirizzo": "PIAZZA MONS.BENIAMINO ALESSIO",
    "comune": "NIMIS ",
    "longitudine": "13.264236",
    "latitudine": "46.200614",
    "tipo": "STRADALE"
  },
  {
    "id": "452",
    "marchio_id": "1",
    "indirizzo": "VIA CARNIA LIBERA 21",
    "comune": "OVARO ",
    "longitudine": "12.864789",
    "latitudine": "46.487281",
    "tipo": "STRADALE"
  },
  {
    "id": "454",
    "marchio_id": "2",
    "indirizzo": "SS.355",
    "comune": "COMEGLIANS ",
    "longitudine": "12.865853",
    "latitudine": "46.515014",
    "tipo": "STRADALE"
  },
  {
    "id": "455",
    "marchio_id": "3",
    "indirizzo": "VIA CADUTI 2 MAGGIO 35",
    "comune": "OVARO ",
    "longitudine": "12.867699",
    "latitudine": "46.478887",
    "tipo": "STRADALE"
  },
  {
    "id": "456",
    "marchio_id": "4",
    "indirizzo": "SS 52 KM 19+820",
    "comune": "VILLA SANTINA ",
    "longitudine": "12.919334",
    "latitudine": "46.416282",
    "tipo": "STRADALE"
  },
  {
    "id": "457",
    "marchio_id": "5",
    "indirizzo": "SS 52 KM 19+046",
    "comune": "VILLA SANTINA ",
    "longitudine": "12.927952",
    "latitudine": "46.415544",
    "tipo": "STRADALE"
  },
  {
    "id": "458",
    "marchio_id": "6",
    "indirizzo": "SS 52 KM 18+760",
    "comune": "VILLA SANTINA ",
    "longitudine": "12.931363",
    "latitudine": "46.41475",
    "tipo": "STRADALE"
  },
  {
    "id": "460",
    "marchio_id": "1",
    "indirizzo": "SS 52 KM 13,750",
    "comune": "PALUZZA ",
    "longitudine": "13.002201",
    "latitudine": "46.511026",
    "tipo": "STRADALE"
  },
  {
    "id": "463",
    "marchio_id": "2",
    "indirizzo": "VIA 4 NOVEMBRE 6",
    "comune": "TOLMEZZO ",
    "longitudine": "13.017427",
    "latitudine": "46.402797",
    "tipo": "STRADALE"
  },
  {
    "id": "464",
    "marchio_id": "3",
    "indirizzo": "VIA MARCHI 2",
    "comune": "TOLMEZZO ",
    "longitudine": "13.018905",
    "latitudine": "46.403081",
    "tipo": "STRADALE"
  },
  {
    "id": "465",
    "marchio_id": "4",
    "indirizzo": "VIA PALUZZA 110",
    "comune": "TOLMEZZO ",
    "longitudine": "13.021053",
    "latitudine": "46.420291",
    "tipo": "STRADALE"
  },
  {
    "id": "466",
    "marchio_id": "5",
    "indirizzo": "VIA MARCHI 14",
    "comune": "TOLMEZZO ",
    "longitudine": "13.022248",
    "latitudine": "46.401098",
    "tipo": "STRADALE"
  },
  {
    "id": "469",
    "marchio_id": "6",
    "indirizzo": "VIA ROMA 76",
    "comune": "PAULARO ",
    "longitudine": "13.119322",
    "latitudine": "46.527334",
    "tipo": "STRADALE"
  },
  {
    "id": "470",
    "marchio_id": "1",
    "indirizzo": "A23 CAMPIOLO",
    "comune": "MOGGIO UDINESE ",
    "longitudine": "13.16716",
    "latitudine": "46.398254",
    "tipo": "STRADALE"
  },
  {
    "id": "472",
    "marchio_id": "2",
    "indirizzo": "VIALE UDINE 11",
    "comune": "RESIUTTA ",
    "longitudine": "13.21531",
    "latitudine": "46.394854",
    "tipo": "STRADALE"
  },
  {
    "id": "474",
    "marchio_id": "3",
    "indirizzo": "VIA CAVOUR 34",
    "comune": "PONTEBBA ",
    "longitudine": "13.301698",
    "latitudine": "46.500724",
    "tipo": "STRADALE"
  },
  {
    "id": "475",
    "marchio_id": "4",
    "indirizzo": "A23 FELLA EST",
    "comune": "MALBORGHETTO VALBRUNA ",
    "longitudine": "13.37669",
    "latitudine": "46.49872",
    "tipo": "STRADALE"
  },
  {
    "id": "476",
    "marchio_id": "5",
    "indirizzo": "VIA NAZIONALE 29",
    "comune": "MALBORGHETTO VALBRUNA ",
    "longitudine": "13.432612",
    "latitudine": "46.506313",
    "tipo": "STRADALE"
  },
  {
    "id": "477",
    "marchio_id": "6",
    "indirizzo": "SS. 202 KM. 18+945",
    "comune": "SGONICO ",
    "longitudine": "13.7299",
    "latitudine": "45.718588",
    "tipo": "STRADALE"
  },
  {
    "id": "478",
    "marchio_id": "1",
    "indirizzo": "LOC. CAMPO SACRO SP1 DEL CARSO",
    "comune": "SGONICO ",
    "longitudine": "13.72144",
    "latitudine": "45.720091",
    "tipo": "STRADALE"
  },
  {
    "id": "480",
    "marchio_id": "2",
    "indirizzo": "RACCORDO AUTOSTRADALE A/4 TRIESTE KM 0+340",
    "comune": "DUINO-AURISINA ",
    "longitudine": "13.646637",
    "latitudine": "45.769276",
    "tipo": "STRADALE"
  },
  {
    "id": "483",
    "marchio_id": "3",
    "indirizzo": "A4 DUINO NORD",
    "comune": "DUINO-AURISINA ",
    "longitudine": "13.607765",
    "latitudine": "45.777344",
    "tipo": "STRADALE"
  },
  {
    "id": "485",
    "marchio_id": "4",
    "indirizzo": "A4 DUINO SUD",
    "comune": "DUINO-AURISINA ",
    "longitudine": "13.608473",
    "latitudine": "45.77667",
    "tipo": "STRADALE"
  },
  {
    "id": "486",
    "marchio_id": "5",
    "indirizzo": "VIA GRADO 3",
    "comune": "MONFALCONE ",
    "longitudine": "13.5278",
    "latitudine": "45.799323",
    "tipo": "STRADALE"
  },
  {
    "id": "487",
    "marchio_id": "6",
    "indirizzo": "VIA PALMANOVA, 63/A",
    "comune": "GRADISCA D'ISONZO ",
    "longitudine": "13.465366",
    "latitudine": "45.879606",
    "tipo": "STRADALE"
  },
  {
    "id": "490",
    "marchio_id": "1",
    "indirizzo": "VIA AQUILEIA 35",
    "comune": "RONCHI DEI LEGIONARI ",
    "longitudine": "13.476254",
    "latitudine": "45.819389",
    "tipo": "STRADALE"
  },
  {
    "id": "491",
    "marchio_id": "2",
    "indirizzo": "VIA REDIPUGLIA  42",
    "comune": "FOGLIANO REDIPUGLIA ",
    "longitudine": "13.482998",
    "latitudine": "45.861061",
    "tipo": "STRADALE"
  },
  {
    "id": "492",
    "marchio_id": "3",
    "indirizzo": "STRADA SAN CANCIANO, 11",
    "comune": "STARANZANO ",
    "longitudine": "13.484868",
    "latitudine": "45.802999",
    "tipo": "STRADALE"
  },
  {
    "id": "494",
    "marchio_id": "4",
    "indirizzo": "VIA PIETRO MICCA 15",
    "comune": "FOGLIANO REDIPUGLIA ",
    "longitudine": "13.48846",
    "latitudine": "45.840146",
    "tipo": "STRADALE"
  },
  {
    "id": "495",
    "marchio_id": "5",
    "indirizzo": "SS 305 KM 14+075",
    "comune": "RONCHI DEI LEGIONARI ",
    "longitudine": "13.49345",
    "latitudine": "45.840332",
    "tipo": "STRADALE"
  },
  {
    "id": "496",
    "marchio_id": "6",
    "indirizzo": "VIALE TRIESTE 50/A",
    "comune": "GRADISCA D'ISONZO ",
    "longitudine": "13.496052",
    "latitudine": "45.886098",
    "tipo": "STRADALE"
  },
  {
    "id": "497",
    "marchio_id": "1",
    "indirizzo": "VIA REDIPUGLIA 25",
    "comune": "RONCHI DEI LEGIONARI ",
    "longitudine": "13.500342",
    "latitudine": "45.830364",
    "tipo": "STRADALE"
  },
  {
    "id": "499",
    "marchio_id": "2",
    "indirizzo": "VIA TRIESTE 47",
    "comune": "STARANZANO ",
    "longitudine": "13.509257",
    "latitudine": "45.805521",
    "tipo": "STRADALE"
  },
  {
    "id": "500",
    "marchio_id": "3",
    "indirizzo": "G.F. POCAR",
    "comune": "MONFALCONE ",
    "longitudine": "13.511216",
    "latitudine": "45.816262",
    "tipo": "STRADALE"
  },
  {
    "id": "501",
    "marchio_id": "4",
    "indirizzo": "VIA I MAGGIO 59",
    "comune": "MONFALCONE ",
    "longitudine": "13.513213",
    "latitudine": "45.813888",
    "tipo": "STRADALE"
  },
  {
    "id": "502",
    "marchio_id": "5",
    "indirizzo": "VIA SAN POLO",
    "comune": "MONFALCONE ",
    "longitudine": "13.521815",
    "latitudine": "45.811248",
    "tipo": "STRADALE"
  },
  {
    "id": "504",
    "marchio_id": "6",
    "indirizzo": "VIA GORIZIA 109",
    "comune": "FARRA D'ISONZO ",
    "longitudine": "13.537178",
    "latitudine": "45.904459",
    "tipo": "STRADALE"
  },
  {
    "id": "506",
    "marchio_id": "1",
    "indirizzo": "VIA MATTEOTTI 23",
    "comune": "MONFALCONE ",
    "longitudine": "13.53871",
    "latitudine": "45.806138",
    "tipo": "STRADALE"
  },
  {
    "id": "507",
    "marchio_id": "2",
    "indirizzo": "VIA BOITO  43",
    "comune": "MONFALCONE ",
    "longitudine": "13.5417",
    "latitudine": "45.802199",
    "tipo": "STRADALE"
  },
  {
    "id": "508",
    "marchio_id": "3",
    "indirizzo": "VIA BOITO 57",
    "comune": "MONFALCONE ",
    "longitudine": "13.546203",
    "latitudine": "45.801954",
    "tipo": "STRADALE"
  },
  {
    "id": "509",
    "marchio_id": "4",
    "indirizzo": "VIA BOITO 64",
    "comune": "MONFALCONE ",
    "longitudine": "13.546973",
    "latitudine": "45.801836",
    "tipo": "STRADALE"
  },
  {
    "id": "510",
    "marchio_id": "5",
    "indirizzo": "VIA VALENTINIS 61",
    "comune": "MONFALCONE ",
    "longitudine": "13.54943",
    "latitudine": "45.801697",
    "tipo": "STRADALE"
  },
  {
    "id": "511",
    "marchio_id": "6",
    "indirizzo": "VIA TRIESTE 106",
    "comune": "GORIZIA ",
    "longitudine": "13.612944",
    "latitudine": "45.924968",
    "tipo": "STRADALE"
  },
  {
    "id": "512",
    "marchio_id": "1",
    "indirizzo": "VIA TRIESTE 179",
    "comune": "GORIZIA ",
    "longitudine": "13.613162",
    "latitudine": "45.92791",
    "tipo": "STRADALE"
  },
  {
    "id": "514",
    "marchio_id": "2",
    "indirizzo": "VIA AQUILEIA 40",
    "comune": "GORIZIA ",
    "longitudine": "13.603541",
    "latitudine": "45.934088",
    "tipo": "STRADALE"
  },
  {
    "id": "515",
    "marchio_id": "3",
    "indirizzo": "V.AQUILEIA - FATEBENEFRATELLI",
    "comune": "GORIZIA ",
    "longitudine": "13.606974",
    "latitudine": "45.934401",
    "tipo": "STRADALE"
  },
  {
    "id": "516",
    "marchio_id": "4",
    "indirizzo": "VIA AQUILEIA 60",
    "comune": "GORIZIA ",
    "longitudine": "13.60102",
    "latitudine": "45.934509",
    "tipo": "STRADALE"
  },
  {
    "id": "517",
    "marchio_id": "5",
    "indirizzo": "VIA TRIESTE 22",
    "comune": "GORIZIA ",
    "longitudine": "13.613106",
    "latitudine": "45.934557",
    "tipo": "STRADALE"
  },
  {
    "id": "518",
    "marchio_id": "6",
    "indirizzo": "VIA LUNGO ISONZO ARGENTINA 110",
    "comune": "GORIZIA ",
    "longitudine": "13.600439",
    "latitudine": "45.935677",
    "tipo": "STRADALE"
  },
  {
    "id": "520",
    "marchio_id": "1",
    "indirizzo": "VIA DUCA D'AOSTA 74",
    "comune": "GORIZIA ",
    "longitudine": "13.616664",
    "latitudine": "45.937536",
    "tipo": "STRADALE"
  },
  {
    "id": "521",
    "marchio_id": "2",
    "indirizzo": "VIA LUNGO ISONZO ARGENTINA 77",
    "comune": "GORIZIA ",
    "longitudine": "13.602791",
    "latitudine": "45.938031",
    "tipo": "STRADALE"
  },
  {
    "id": "524",
    "marchio_id": "3",
    "indirizzo": "VIA CRISPI 14",
    "comune": "GORIZIA ",
    "longitudine": "13.623141",
    "latitudine": "45.942829",
    "tipo": "STRADALE"
  },
  {
    "id": "526",
    "marchio_id": "4",
    "indirizzo": "SS 56 KM 24 + 176",
    "comune": "CORMONS ",
    "longitudine": "13.475126",
    "latitudine": "45.950274",
    "tipo": "STRADALE"
  },
  {
    "id": "529",
    "marchio_id": "5",
    "indirizzo": "V.LE DELLA VENEZIA GIULIA 53",
    "comune": "CORMONS ",
    "longitudine": "13.463798",
    "latitudine": "45.958828",
    "tipo": "STRADALE"
  },
  {
    "id": "531",
    "marchio_id": "6",
    "indirizzo": "FRAZ.CEMUR",
    "comune": "SAN LEONARDO ",
    "longitudine": "13.505183",
    "latitudine": "46.115416",
    "tipo": "STRADALE"
  },
  {
    "id": "534",
    "marchio_id": "1",
    "indirizzo": "SS 13 KM 220+230",
    "comune": "TARVISIO ",
    "longitudine": "13.569207",
    "latitudine": "46.505388",
    "tipo": "STRADALE"
  },
  {
    "id": "535",
    "marchio_id": "2",
    "indirizzo": "VIA DIAZ 56",
    "comune": "TARVISIO ",
    "longitudine": "13.565192",
    "latitudine": "46.50617",
    "tipo": "STRADALE"
  },
  {
    "id": "537",
    "marchio_id": "3",
    "indirizzo": "LOC.AQUILINIA VIA FLAVIA 12/A",
    "comune": "MUGGIA ",
    "longitudine": "13.807456",
    "latitudine": "45.605386",
    "tipo": "STRADALE"
  },
  {
    "id": "539",
    "marchio_id": "4",
    "indirizzo": "VIA FLAVIA 120/1",
    "comune": "TRIESTE ",
    "longitudine": "13.819341",
    "latitudine": "45.611592",
    "tipo": "STRADALE"
  },
  {
    "id": "540",
    "marchio_id": "5",
    "indirizzo": "STRADA DELLA ROSANDRA 62",
    "comune": "TRIESTE ",
    "longitudine": "13.825706",
    "latitudine": "45.612887",
    "tipo": "STRADALE"
  },
  {
    "id": "543",
    "marchio_id": "6",
    "indirizzo": "VIA FLAVIA, 59",
    "comune": "TRIESTE ",
    "longitudine": "13.815007",
    "latitudine": "45.61788",
    "tipo": "STRADALE"
  },
  {
    "id": "546",
    "marchio_id": "1",
    "indirizzo": "VIA DELL'ISTRIA 212",
    "comune": "TRIESTE ",
    "longitudine": "13.794917",
    "latitudine": "45.626679",
    "tipo": "STRADALE"
  },
  {
    "id": "547",
    "marchio_id": "2",
    "indirizzo": "VIA DELL'ISTRIA 155",
    "comune": "TRIESTE ",
    "longitudine": "13.794271",
    "latitudine": "45.62705",
    "tipo": "STRADALE"
  },
  {
    "id": "548",
    "marchio_id": "3",
    "indirizzo": "VIA FORLANINI 44",
    "comune": "TRIESTE ",
    "longitudine": "13.83114",
    "latitudine": "45.636036",
    "tipo": "STRADALE"
  },
  {
    "id": "549",
    "marchio_id": "4",
    "indirizzo": "V. BRIGATA CASALE KM 4",
    "comune": "TRIESTE ",
    "longitudine": "13.815008",
    "latitudine": "45.637958",
    "tipo": "STRADALE"
  },
  {
    "id": "550",
    "marchio_id": "5",
    "indirizzo": "V.LE CAMPI ELISI 1/1",
    "comune": "TRIESTE ",
    "longitudine": "13.765302",
    "latitudine": "45.638307",
    "tipo": "STRADALE"
  },
  {
    "id": "553",
    "marchio_id": "6",
    "indirizzo": "PASSEGGIO S. ANDREA 10",
    "comune": "TRIESTE ",
    "longitudine": "13.760296",
    "latitudine": "45.639331",
    "tipo": "STRADALE"
  },
  {
    "id": "554",
    "marchio_id": "1",
    "indirizzo": "VIA CAMPI ELISI",
    "comune": "TRIESTE ",
    "longitudine": "13.77387",
    "latitudine": "45.639287",
    "tipo": "STRADALE"
  },
  {
    "id": "555",
    "marchio_id": "2",
    "indirizzo": "VIA D'ALVIANO 14",
    "comune": "TRIESTE ",
    "longitudine": "13.777149",
    "latitudine": "45.639752",
    "tipo": "STRADALE"
  },
  {
    "id": "556",
    "marchio_id": "3",
    "indirizzo": "P.ZZA FORAGGI 7",
    "comune": "TRIESTE ",
    "longitudine": "13.788875",
    "latitudine": "45.640004",
    "tipo": "STRADALE"
  },
  {
    "id": "557",
    "marchio_id": "4",
    "indirizzo": "VIA LOCCHI 3",
    "comune": "TRIESTE ",
    "longitudine": "13.757229",
    "latitudine": "45.641795",
    "tipo": "STRADALE"
  },
  {
    "id": "558",
    "marchio_id": "5",
    "indirizzo": "VIA F.SEVERO 2/3",
    "comune": "TRIESTE ",
    "longitudine": "13.776426",
    "latitudine": "45.655358",
    "tipo": "STRADALE"
  },
  {
    "id": "560",
    "marchio_id": "6",
    "indirizzo": "VIA RAFFAELLO SANZIO  31",
    "comune": "TRIESTE ",
    "longitudine": "13.804011",
    "latitudine": "45.655575",
    "tipo": "STRADALE"
  },
  {
    "id": "561",
    "marchio_id": "1",
    "indirizzo": "VIA A.VALERIO 1",
    "comune": "TRIESTE ",
    "longitudine": "13.79485",
    "latitudine": "45.658096",
    "tipo": "STRADALE"
  },
  {
    "id": "562",
    "marchio_id": "2",
    "indirizzo": "V.LE MIRAMARE 49",
    "comune": "TRIESTE ",
    "longitudine": "13.767422",
    "latitudine": "45.664796",
    "tipo": "STRADALE"
  },
  {
    "id": "563",
    "marchio_id": "3",
    "indirizzo": "STR.DEL FRIULI 5",
    "comune": "TRIESTE ",
    "longitudine": "13.76459",
    "latitudine": "45.669125",
    "tipo": "STRADALE"
  },
  {
    "id": "565",
    "marchio_id": "4",
    "indirizzo": "V.LE MIRAMARE 233/1",
    "comune": "TRIESTE ",
    "longitudine": "13.747412",
    "latitudine": "45.686424",
    "tipo": "STRADALE"
  },
  {
    "id": "566",
    "marchio_id": "5",
    "indirizzo": "INTERPORTO TRIESTE",
    "comune": "MONRUPINO ",
    "longitudine": "13.829975",
    "latitudine": "45.69944",
    "tipo": "STRADALE"
  },
  {
    "id": "567",
    "marchio_id": "6",
    "indirizzo": "SP 35 DI OPICINA KM 7+076",
    "comune": "SGONICO ",
    "longitudine": "13.744162",
    "latitudine": "45.708703",
    "tipo": "STRADALE"
  },
  {
    "id": "568",
    "marchio_id": "1",
    "indirizzo": "V.LE VENEZIA 92",
    "comune": "CODROIPO ",
    "longitudine": "12.970277",
    "latitudine": "45.967515",
    "tipo": "STRADALE"
  },
  {
    "id": "569",
    "marchio_id": "2",
    "indirizzo": "VIA CHIAVORNICCO 40/A",
    "comune": "CORDENONS ",
    "longitudine": "12.704929",
    "latitudine": "45.962",
    "tipo": "STRADALE"
  },
  {
    "id": "570",
    "marchio_id": "3",
    "indirizzo": "VIA RIGOLATO 7/A",
    "comune": "FORNI AVOLTRI ",
    "longitudine": "12.781711",
    "latitudine": "46.583805",
    "tipo": "STRADALE"
  },
  {
    "id": "571",
    "marchio_id": "4",
    "indirizzo": "A4 GONARS NORD",
    "comune": "GONARS ",
    "longitudine": "13.25844",
    "latitudine": "45.882328",
    "tipo": "STRADALE"
  },
  {
    "id": "572",
    "marchio_id": "5",
    "indirizzo": "S.R.305 VARIANTE",
    "comune": "MARIANO DEL FRIULI ",
    "longitudine": "13.46795",
    "latitudine": "45.915403",
    "tipo": "STRADALE"
  },
  {
    "id": "573",
    "marchio_id": "6",
    "indirizzo": "VIA NAZIONALE 2",
    "comune": "PALUZZA ",
    "longitudine": "13.010026",
    "latitudine": "46.52442",
    "tipo": "STRADALE"
  },
  {
    "id": "574",
    "marchio_id": "1",
    "indirizzo": "PRA' 19",
    "comune": "PORDENONE ",
    "longitudine": "12.699249",
    "latitudine": "45.952206",
    "tipo": "STRADALE"
  },
  {
    "id": "575",
    "marchio_id": "2",
    "indirizzo": "VIA LIGNANO 22",
    "comune": "RONCHIS ",
    "longitudine": "13.015381",
    "latitudine": "45.806786",
    "tipo": "STRADALE"
  },
  {
    "id": "576",
    "marchio_id": "3",
    "indirizzo": "VIALE DELLA REPUBBLICA 36",
    "comune": "SACILE ",
    "longitudine": "12.495062",
    "latitudine": "45.955918",
    "tipo": "STRADALE"
  },
  {
    "id": "577",
    "marchio_id": "4",
    "indirizzo": "SS 56 KM 28+593",
    "comune": "SAN LORENZO ISONTINO ",
    "longitudine": "13.525889",
    "latitudine": "45.93444",
    "tipo": "STRADALE"
  },
  {
    "id": "578",
    "marchio_id": "5",
    "indirizzo": "VIVARO 7 TAURIANO",
    "comune": "SPILIMBERGO ",
    "longitudine": "12.853676",
    "latitudine": "46.098866",
    "tipo": "STRADALE"
  },
  {
    "id": "579",
    "marchio_id": "6",
    "indirizzo": "VIA BAIAMONTI 2",
    "comune": "TRIESTE ",
    "longitudine": "13.781513",
    "latitudine": "45.628594",
    "tipo": "STRADALE"
  }
]